,USAF,WBAN,STATION NAME,CTRY,ST,CALL,LAT,LON,ELEV(M),BEGIN,END
0,007018, 99999 ,WXPOD 7018                    ,     ,   ,      ,0.0,0.0,7018.0,2011-03-09,2013-07-30
1,007026, 99999 ,WXPOD 7026                    ,AF   ,   ,      ,0.0,0.0,7026.0,2012-07-13,2017-08-22
2,007070, 99999 ,WXPOD 7070                    ,AF   ,   ,      ,0.0,0.0,7070.0,2014-09-23,2015-09-26
3,008260, 99999 ,WXPOD8270                     ,     ,   ,      ,0.0,0.0,0.0,2005-01-01,2012-07-31
4,008268, 99999 ,WXPOD8278                     ,AF   ,   ,      ,32.95,65.567,1156.7,2010-05-19,2012-03-23
5,008307, 99999 ,WXPOD 8318                    ,AF   ,   ,      ,0.0,0.0,8318.0,2010-04-21,2010-04-21
6,008411, 99999 ,XM20                          ,     ,   ,      ,,,,2016-02-17,2016-02-17
7,008414, 99999 ,XM18                          ,     ,   ,      ,,,,2016-02-16,2016-02-17
8,008415, 99999 ,XM21                          ,     ,   ,      ,,,,2016-02-17,2020-03-14
9,008418, 99999 ,XM24                          ,     ,   ,      ,,,,2016-02-17,2016-02-17
10,010000, 99999 ,BOGUS NORWAY                  ,NO   ,   ,ENRS  ,,,,2001-09-27,2004-10-19
11,010010, 99999 ,JAN MAYEN(NOR-NAVY)           ,NO   ,   ,ENJA  ,70.933,-8.667,9.0,1931-01-01,2021-06-01
12,010013, 99999 ,ROST                          ,NO   ,   ,      ,,,,1986-11-20,1988-01-05
13,010014, 99999 ,SORSTOKKEN                    ,NO   ,   ,ENSO  ,59.792,5.341,48.8,1986-11-20,2021-06-01
14,010015, 99999 ,BRINGELAND                    ,NO   ,   ,      ,61.383,5.867000000000001,327.0,1987-01-17,2008-12-31
15,010016, 99999 ,RORVIK/RYUM                   ,NO   ,   ,      ,64.85,11.232999999999999,14.0,1987-01-16,1991-08-06
16,010017, 99999 ,FRIGG                         ,NO   ,   ,ENFR  ,59.98,2.25,48.0,1988-03-20,2005-02-28
17,010020, 99999 ,VERLEGENHUKEN                 ,NO   ,   ,      ,80.05,16.25,8.0,1986-11-09,2021-05-31
18,010030, 99999 ,HORNSUND                      ,NO   ,   ,      ,77.0,15.5,12.0,1985-06-01,2021-06-01
19,010040, 99999 ,NY-ALESUND II                 ,NO   ,   ,ENAS  ,78.917,11.933,8.0,1973-01-01,2014-05-23
20,010050, 99999 ,ISFJORD RADIO                 ,SV   ,   ,      ,78.067,13.633,9.0,1931-01-03,2004-10-30
21,010060, 99999 ,EDGEOYA                       ,NO   ,   ,      ,78.25,22.816999999999997,14.0,1973-01-01,2021-05-31
22,010070, 99999 ,NY-ALESUND                    ,SV   ,   ,      ,78.917,11.933,7.7,1973-01-06,2021-05-31
23,010071, 99999 ,LONGYEARBYEN                  ,SV   ,   ,      ,78.217,15.583,37.0,2005-02-10,2005-02-10
24,010080, 99999 ,LONGYEAR                      ,SV   ,   ,ENSB  ,78.24600000000001,15.466,26.8,1975-09-29,2021-06-01
25,010090, 99999 ,KARL XII OYA                  ,SV   ,   ,      ,80.65,25.0,5.0,1955-01-01,2021-05-31
26,010100, 99999 ,ANDOYA                        ,NO   ,   ,ENAN  ,69.293,16.144000000000002,13.1,1931-01-03,2021-06-01
27,010110, 99999 ,KVITOYA                       ,SV   ,   ,      ,80.067,31.5,10.0,1986-11-18,2021-05-27
28,010120, 99999 ,                              ,     ,   ,      ,,,,1974-11-30,1975-11-16
29,010140, 99999 ,SENJA-LAUKHELLA               ,NO   ,   ,      ,69.233,17.9,9.0,1973-01-01,2014-05-23
30,010150, 99999 ,HEKKINGEN FYR                 ,NO   ,   ,      ,69.6,17.833,14.0,1980-03-14,2021-06-01
31,010160, 99999 ,KONGSOYA                      ,NO   ,   ,      ,78.933,28.9,20.0,1993-05-01,2021-05-24
32,010170, 99999 ,AKSELOYA                      ,SV   ,   ,      ,77.683,14.783,6.0,1973-01-01,2021-05-31
33,010171, 99999 ,GIBOSTAD                      ,NO   ,   ,      ,69.35,18.083,12.0,2005-02-16,2007-03-07
34,010190, 99999 ,SVARTTANGEN                   ,NO   ,   ,      ,77.517,20.816999999999997,20.0,2010-08-25,2014-05-23
35,010200, 99999 ,SORKAPPOYA                    ,SV   ,   ,      ,76.483,16.55,10.0,2010-10-08,2021-06-01
36,010230, 99999 ,BARDUFOSS                     ,NO   ,   ,ENDU  ,69.056,18.54,76.8,1940-07-13,2021-06-01
37,010231, 99999 ,DRAUGEN                       ,NO   ,   ,ENDR  ,64.35,7.8,0.0,2004-05-10,2020-11-24
38,010240, 99999 ,PYRAMIDEN                     ,NO   ,   ,      ,78.65,16.367,20.0,1973-01-01,2021-06-01
39,010250, 99999 ,TROMSO                        ,NO   ,   ,ENTC  ,69.683,18.919,9.4,1973-01-01,2021-06-01
40,010260, 99999 ,TROMSO                        ,NO   ,   ,      ,69.65,18.933,114.5,1997-02-01,2021-06-01
41,010270, 99999 ,TROMSO-HOLT                   ,NO   ,   ,      ,69.65,18.9,20.0,2011-09-28,2021-06-01
42,010280, 99999 ,BJORNOYA ISLAND               ,NO   ,   ,ENBJ  ,74.517,19.017,18.0,1931-01-03,2021-06-01
43,010300, 99999 ,KISTEFJELL                    ,NO   ,   ,      ,69.283,18.133,982.0,1951-01-01,2021-06-01
44,010303, 99999 ,TROMSO/SKATTURA               ,NO   ,   ,      ,69.7,19.017,14.0,2014-05-22,2015-01-08
45,010320, 99999 ,OVERBYGD                      ,NO   ,   ,      ,69.017,19.283,78.0,1973-01-01,2014-05-23
46,010330, 99999 ,TORSVAG FYR                   ,NO   ,   ,      ,70.25,19.5,24.0,1973-01-01,2021-06-01
47,010340, 99999 ,FUGLOYKALVEN FYR              ,NO   ,   ,      ,70.317,20.15,38.0,1987-12-02,2014-05-23
48,010350, 99999 ,LYNGEN GJERDVASSBU            ,NO   ,   ,      ,69.567,20.1,710.0,1973-01-01,2021-06-01
49,010360, 99999 ,NORDNESFJELLET                ,NO   ,   ,      ,69.567,20.433,710.0,2004-05-10,2021-06-01
50,010361, 99999 ,SKIBOTIN                      ,NO   ,   ,      ,69.367,20.267,5.0,2005-09-16,2005-09-22
51,010370, 99999 ,SKIBOTN 2                     ,NO   ,   ,      ,69.383,20.283,20.0,1973-01-01,2021-06-01
52,010400, 99999 ,SKJERVOY                      ,NO   ,   ,      ,70.033,20.983,15.0,1973-01-01,1978-09-27
53,010410, 99999 ,NORDREISA-OYENG               ,NO   ,   ,      ,69.733,21.017,5.0,1973-01-01,2014-05-23
54,010420, 99999 ,HASVIK-SLUSKFJELLET           ,NO   ,   ,      ,70.6,22.45,438.0,2008-09-17,2021-05-31
55,010430, 99999 ,ROGNSUNDET                    ,NO   ,   ,      ,70.417,22.816999999999997,10.0,1973-01-01,2021-05-24
56,010431, 99999 ,LOPPA                         ,NO   ,   ,      ,70.333,21.467,11.0,2006-02-07,2007-03-07
57,010435, 99999 ,HASVIK                        ,NO   ,   ,      ,70.483,22.15,7.0,1975-05-15,2008-12-30
58,010440, 99999 ,HASVIK                        ,NO   ,   ,ENHK  ,70.487,22.14,6.4,2005-01-02,2021-06-01
59,010450, 99999 ,NORDSTRAUM I KVAENANGEN       ,NO   ,   ,      ,69.833,21.883000000000003,6.0,1973-01-01,2021-06-01
60,010455, 99999 ,                              ,     ,   ,      ,,,,1974-11-17,1975-09-04
61,010460, 99999 ,SORKJOSEN                     ,NO   ,   ,ENSR  ,69.78699999999999,20.959,4.9,1975-09-05,2021-06-01
62,010470, 99999 ,KAUTOKEINO II                 ,NO   ,   ,ENKA  ,69.017,23.066999999999997,307.0,1973-01-01,2021-05-26
63,010490, 99999 ,ALTA                          ,NO   ,   ,ENAT  ,69.976,23.372,2.7,1973-01-01,2021-06-01
64,010510, 99999 ,SUOLOVUOPMI                   ,NO   ,   ,      ,69.583,23.533,374.0,1973-01-02,2014-05-23
65,010520, 99999 ,HAMMERFEST AP                 ,NO   ,   ,ENHF  ,70.683,23.683000000000003,81.0,1940-10-08,2021-06-01
66,010530, 99999 ,HAMMERFEST RADIO              ,NO   ,   ,      ,70.683,23.683000000000003,70.0,1973-01-01,1987-12-26
67,010550, 99999 ,FRUHOLMEN FYR                 ,NO   ,   ,      ,71.1,23.983,14.2,1931-01-01,2021-06-01
68,010570, 99999 ,CUOVDDATMOHKKI                ,NO   ,   ,      ,69.367,24.433000000000003,286.0,1973-01-01,2021-06-01
69,010580, 99999 ,SUOLOVUOPMI LULIT             ,NO   ,   ,      ,69.567,23.533,381.0,2005-02-18,2021-06-01
70,010590, 99999 ,BANAK                         ,NO   ,   ,ENNA  ,70.069,24.973000000000003,7.6,1973-01-01,2021-06-01
71,010610, 99999 ,BRENNELV                      ,NO   ,   ,      ,70.067,25.116999999999997,34.0,1973-01-01,1984-07-07
72,010617, 99999 ,OSEBERG                       ,NO   ,   ,      ,,,,1989-01-01,1990-10-01
73,010620, 99999 ,HOPEN ISLAND                  ,NO   ,   ,ENHO  ,76.5,25.066999999999997,10.0,1955-01-01,2021-06-01
74,010630, 99999 ,KISTRAND III                  ,NO   ,   ,      ,70.45,25.217,6.0,1973-01-01,1987-07-15
75,010650, 99999 ,KARASJOK                      ,NO   ,   ,      ,69.467,25.517,133.0,1973-01-01,2021-06-01
76,010660, 99999 ,HELNES FYR                    ,NO   ,   ,      ,71.067,26.233,33.0,1973-01-01,2004-06-19
77,010670, 99999 ,LEVAJOK-EVJEN                 ,NO   ,   ,      ,69.9,26.416999999999998,112.0,1973-01-03,1982-09-24
78,010671, 99999 ,LEVAJOK-EVJEN                 ,NO   ,   ,      ,69.9,26.416999999999998,112.0,2007-03-07,2007-03-07
79,010680, 99999 ,HONNINGSVAG/VALAN             ,NO   ,   ,ENHV  ,71.017,25.983,14.0,1980-06-04,2021-06-01
80,010720, 99999 ,                              ,     ,   ,      ,,,,1974-02-27,1974-02-27
81,010740, 99999 ,MEHAMN                        ,NO   ,   ,ENMH  ,71.033,27.833000000000002,13.0,1975-09-05,2021-06-01
82,010750, 99999 ,RUSTEFJELBMA                  ,NO   ,   ,      ,70.4,28.2,11.2,1973-01-01,2013-05-31
83,010760, 99999 ,TANABRU                       ,NO   ,   ,      ,70.217,28.166999999999998,32.0,2012-11-21,2021-06-01
84,010780, 99999 ,SLETTNES FYR                  ,NO   ,   ,      ,71.1,28.233,10.0,1973-01-01,2021-06-01
85,010820, 99999 ,NYRUD                         ,NO   ,   ,      ,69.15,29.25,56.0,1973-09-19,2021-06-01
86,010830, 99999 ,BERLEVAG                      ,NO   ,   ,ENBV  ,70.867,29.033,13.0,1975-09-05,2021-06-01
87,010840, 99999 ,PASVIK                        ,NO   ,   ,      ,69.45,30.033,27.0,1973-01-01,2021-06-01
88,010850, 99999 ,BUGOYFJORD                    ,NO   ,   ,      ,69.85,29.416999999999998,8.0,1973-01-01,1978-10-08
89,010860, 99999 ,BATSFJORD                     ,NO   ,   ,ENBS  ,70.6,29.693,149.4,2005-01-01,2021-06-01
90,010875, 99999 ,HEIMDAL OIL PLATFORM          ,NO   ,   ,ENHM  ,59.567,2.217,90.0,2011-01-01,2021-06-01
91,010876, 99999 ,NORNE OIL PLATFORM            ,NO   ,   ,ENNE  ,66.017,8.083,90.0,2011-01-01,2021-06-01
92,010877, 99999 ,TROLL A  OIL PLATFORM         ,NO   ,   ,ENQA  ,60.633,3.717,90.0,2011-01-01,2021-06-01
93,010878, 99999 ,SNORRE A  OIL PLATFORM        ,NO   ,   ,ENSE  ,61.45,2.133,90.0,2011-01-01,2021-06-01
94,010879, 99999 ,SNORRE B  OIL PLATFORM        ,NO   ,   ,ENQR  ,61.533,2.2,90.0,2011-01-01,2021-06-01
95,010880, 99999 ,VADSO                         ,NO   ,   ,ENVD  ,70.067,29.85,39.0,1975-09-05,2021-06-01
96,010881, 99999 ,NARVIK III/FRAMNES            ,NO   ,   ,      ,68.467,17.5,23.0,2008-01-01,2008-12-31
97,010882, 99999 ,ROROS                         ,NO   ,   ,ENRO  ,62.578,11.342,626.1,2005-01-02,2021-06-01
98,010883, 99999 ,SANDANE/ANDA                  ,NO   ,   ,      ,61.833,6.117000000000001,60.0,2008-01-01,2008-12-31
99,010884, 99999 ,GEITERYGGEN                   ,NO   ,   ,ENSN  ,59.185,9.567,141.1,2005-01-03,2015-11-09
100,010885, 99999 ,BATSFJORD                     ,NO   ,   ,      ,70.6,29.733,153.0,1994-07-18,2008-12-31
101,010886, 99999 ,SLEIPNER A OIL PLATFORM       ,NO   ,   ,ENSL  ,58.367,1.9,30.0,2009-02-01,2021-06-01
102,010887, 99999 ,TROLL C OIL PLATFORM          ,NO   ,   ,ENQC  ,60.886,3.61,20.0,2011-05-12,2021-06-01
103,010890, 99999 ,HOYBUKTMOEN                   ,NO   ,   ,ENKR  ,69.726,29.893,86.3,1940-11-01,2021-06-01
104,010920, 99999 ,MAKKAUR FYR                   ,NO   ,   ,      ,70.7,30.083000000000002,9.0,1973-01-01,2021-05-31
105,010970, 99999 ,SVARTNES                      ,NO   ,   ,      ,70.35,31.05,12.0,1993-02-09,2008-12-31
106,010980, 99999 ,VARDO                         ,NO   ,   ,      ,70.367,31.1,15.0,1931-01-03,2021-06-01
107,010985, 99999 ,                              ,     ,   ,      ,,,,1974-11-17,1975-09-04
108,010986, 99999 ,                              ,     ,   ,      ,,,,1974-11-17,1975-09-04
109,010987, 99999 ,                              ,     ,   ,      ,,,,1974-11-17,1975-09-04
110,010990, 99999 ,VARDO AP / SVARTNES           ,NO   ,   ,ENSS  ,70.355,31.045,12.8,2005-01-02,2021-06-01
111,011010, 99999 ,BOGUS NORWEGIAN               ,NO   ,   ,      ,,,,1985-12-02,2004-11-05
112,011020, 99999 ,SKLINNA FYR                   ,NO   ,   ,      ,65.2,11.0,16.0,1975-02-28,2021-05-31
113,011025, 99999 ,HEIDRUN                       ,NO   ,   ,ENHE  ,65.333,7.317,80.0,1999-04-24,2021-06-01
114,011030, 99999 ,LEKA                          ,NO   ,   ,      ,65.1,11.7,47.0,1973-01-01,2007-03-07
115,011040, 99999 ,ROTVAER                       ,NO   ,   ,      ,68.367,15.95,8.0,2008-01-01,2008-08-17
116,011050, 99999 ,ROTVAER                       ,NO   ,   ,      ,68.367,15.95,8.0,1973-01-01,2021-06-01
117,011051, 99999 ,SKOMVAER (LGT-H)              ,NO   ,   ,      ,67.417,11.883,18.0,2007-03-07,2007-03-07
118,011060, 99999 ,ROEST III                     ,NO   ,   ,      ,67.517,12.1,2.0,1928-01-01,2008-12-04
119,011070, 99999 ,ROST (NOR-AFB)                ,NO   ,   ,ENRS  ,67.517,12.1,4.0,1988-03-03,2021-06-01
120,011080, 99999 ,VEGA-VALLSJO                  ,NO   ,   ,      ,65.7,11.85,9.1,1991-08-01,2021-06-01
121,011090, 99999 ,SKALVAER                      ,NO   ,   ,      ,65.867,12.183,6.0,1973-01-01,1980-09-10
122,011100, 99999 ,YTTERHOLMEN FYR               ,NO   ,   ,      ,66.0,11.683,33.0,1996-12-01,2005-03-19
123,011110, 99999 ,BRONNOYSUND                   ,NO   ,   ,      ,65.467,12.217,5.0,1973-01-16,1973-07-18
124,011120, 99999 ,BRONNOY                       ,NO   ,   ,ENBN  ,65.461,12.218,7.6,1973-01-01,2021-06-01
125,011130, 99999 ,GLOMFJORD                     ,NO   ,   ,      ,66.8,13.982999999999999,39.0,2004-04-06,2009-12-16
126,011133, 99999 ,DAGALI                        ,NO   ,   ,ENDI  ,60.417,8.513,798.0,1986-05-09,2003-04-27
127,011140, 99999 ,REIPA                         ,NO   ,   ,      ,66.9,13.633,8.0,2009-07-02,2021-06-01
128,011150, 99999 ,MYKEN                         ,NO   ,   ,      ,66.767,12.482999999999999,13.0,1973-01-01,2021-06-01
129,011160, 99999 ,STOKKA                        ,NO   ,   ,ENST  ,65.95,12.467,17.1,1973-04-01,2021-06-01
130,011170, 99999 ,TJOTTA                        ,NO   ,   ,      ,65.817,12.417,21.0,2004-01-19,2021-06-01
131,011210, 99999 ,SOLVAER III                   ,NO   ,   ,      ,66.367,12.617,10.0,1973-01-01,2021-06-01
132,011220, 99999 ,KJAERSTAD                     ,NO   ,   ,ENMS  ,65.78399999999999,13.215,72.2,1988-10-14,2021-06-01
133,011240, 99999 ,SNASA                         ,NO   ,   ,      ,64.167,12.467,195.0,2005-02-18,2021-06-01
134,011310, 99999 ,GLAPEN LIGHTHOUSE             ,NO   ,   ,      ,67.883,13.05,31.0,1973-01-01,1985-06-25
135,011320, 99999 ,MAJAVATN V                    ,NO   ,   ,      ,65.167,13.367,319.0,2008-02-29,2021-06-01
136,011330, 99999 ,LAKSFORS                      ,NO   ,   ,      ,65.617,13.283,50.0,2011-11-29,2021-06-01
137,011340, 99999 ,MAJAVATN III                  ,NO   ,   ,      ,65.183,13.417,339.0,1973-01-01,2007-06-30
138,011350, 99999 ,SELJELIA                      ,NO   ,   ,      ,66.117,13.583,123.0,2011-11-29,2021-06-01
139,011370, 99999 ,STOTT                         ,NO   ,   ,      ,66.933,13.45,12.0,1973-08-06,2007-03-07
140,011380, 99999 ,TENNHOLMEN (LGT-H)            ,NO   ,   ,      ,67.3,13.5,14.0,1985-09-12,2007-03-07
141,011390, 99999 ,VAEROY HELIPORT               ,NO   ,   ,ENVR  ,67.65,12.717,4.0,2011-09-28,2021-06-01
142,011410, 99999 ,LEKNES                        ,NO   ,   ,ENLK  ,68.15,13.617,26.0,1973-06-20,2021-06-01
143,011430, 99999 ,DRAG-AJLUOKTA                 ,NO   ,   ,      ,68.05,16.083,19.0,2007-08-06,2021-06-01
144,011440, 99999 ,HELLIGVAER II                 ,NO   ,   ,      ,67.4,13.883,24.0,2005-03-15,2021-06-01
145,011450, 99999 ,KVALNES I LOFOTEN             ,NO   ,   ,      ,68.35,13.967,15.0,1973-01-01,1982-05-04
146,011460, 99999 ,SKAMDAL                       ,NO   ,   ,      ,66.233,13.883,5.0,1973-01-01,2021-06-01
147,011470, 99999 ,VARNTRESK                     ,NO   ,   ,      ,65.833,14.183,406.0,1940-09-07,2021-06-01
148,011480, 99999 ,STORFORSHEI                   ,NO   ,   ,      ,66.383,14.517000000000001,110.0,2011-06-16,2021-05-31
149,011490, 99999 ,RANA-BASMOEN                  ,NO   ,   ,      ,66.333,14.1,42.0,1973-01-01,2007-02-28
150,011500, 99999 ,HJARTASEN                     ,NO   ,   ,      ,66.5,14.95,251.0,1973-01-03,2021-06-01
151,011501, 99999 ,HATTFJELLDAL-KRUTA            ,NO   ,   ,      ,65.683,14.167,385.0,2002-03-12,2002-03-12
152,011505, 99999 ,                              ,     ,   ,      ,,,,1975-11-01,1975-11-30
153,011510, 99999 ,MOIRANA                       ,NO   ,   ,ENRA  ,66.367,14.3,70.0,1973-04-01,2021-06-01
154,011520, 99999 ,BODO                          ,NO   ,   ,ENBO  ,67.26899999999999,14.365,12.8,1940-09-17,2021-06-01
155,011530, 99999 ,BODO-VAGONES                  ,NO   ,   ,      ,67.283,14.45,33.0,2011-10-03,2014-06-11
156,011540, 99999 ,LITLOY FYR                    ,NO   ,   ,      ,68.583,14.3,30.0,1994-04-06,2017-08-01
157,011550, 99999 ,BO I VESTERALEN II            ,NO   ,   ,      ,68.633,14.467,12.0,1973-01-01,2004-12-01
158,011560, 99999 ,BO I VESTERALEN               ,NO   ,   ,      ,68.6,14.433,7.6,2004-05-10,2021-05-30
159,011580, 99999 ,SETSA                         ,NO   ,   ,      ,67.167,15.482999999999999,8.0,2010-01-14,2021-06-01
160,011600, 99999 ,SKROVA FYR                    ,NO   ,   ,      ,68.15,14.65,11.0,1973-01-01,2021-06-01
161,011610, 99999 ,SVOLVAER/HELLE                ,NO   ,   ,ENSH  ,68.25,14.667,9.0,1973-06-20,2021-06-01
162,011620, 99999 ,STORKMARKNES/SKAGEN           ,NO   ,   ,ENSK  ,68.583,15.017000000000001,3.0,1973-06-20,2021-06-01
163,011630, 99999 ,BOLNA                         ,NO   ,   ,      ,66.5,15.25,549.0,1973-01-01,1977-08-23
164,011650, 99999 ,GROTOY                        ,NO   ,   ,      ,67.833,14.783,6.0,1973-01-01,1978-10-31
165,011670, 99999 ,SORTLAND                      ,NO   ,   ,      ,68.7,15.417,3.0,1985-02-01,2019-12-22
166,011680, 99999 ,KLEIVA I SORTLAND             ,NO   ,   ,      ,68.65,15.283,23.0,1973-01-01,2006-06-11
167,011690, 99999 ,SALTDAL-NORDNES               ,NO   ,   ,      ,66.933,15.317,37.0,1983-01-01,2021-06-01
168,011691, 99999 ,OVRE SALTDAL                  ,NO   ,   ,      ,66.967,15.317,26.0,1973-01-01,1978-10-08
169,011700, 99999 ,FAUSKE-VETEN                  ,NO   ,   ,      ,67.233,15.317,165.0,1973-01-01,1990-03-07
170,011720, 99999 ,FINNOY I HAMAROY              ,NO   ,   ,      ,68.0,15.617,53.0,1973-01-01,2006-03-11
171,011730, 99999 ,                              ,     ,   ,      ,,,,1973-01-01,1973-07-31
172,011751, 99999 ,LODINGEN                      ,NO   ,   ,      ,68.4,16.0,10.0,2004-01-08,2004-01-08
173,011760, 99999 ,KONGSVIK                      ,NO   ,   ,      ,68.567,16.267,25.0,1973-01-01,1978-01-18
174,011800, 99999 ,HARSTAD                       ,NO   ,   ,      ,68.8,16.533,45.0,2004-05-10,2021-06-01
175,011820, 99999 ,EVENSKJER                     ,NO   ,   ,      ,68.583,16.583,7.0,1973-01-01,1985-11-19
176,011830, 99999 ,EVENES                        ,NO   ,   ,ENEV  ,68.491,16.678,25.6,1975-09-05,2021-06-01
177,011840, 99999 ,SANDSOY I SENJA               ,NO   ,   ,      ,68.933,16.683,45.0,1973-01-01,1978-06-13
178,011841, 99999 ,SANDSOY                       ,NO   ,   ,      ,68.933,16.683,45.0,2007-03-07,2007-03-07
179,011890, 99999 ,LILAND                        ,NO   ,   ,      ,68.483,16.883,19.0,1973-01-02,2005-03-02
180,011895, 99999 ,                              ,     ,   ,      ,,,,1973-10-08,1975-09-04
181,011910, 99999 ,SKJOMEN-SLETTJORD             ,NO   ,   ,      ,68.283,17.317,6.0,1973-01-01,1996-11-04
182,011920, 99999 ,STRAUMSNES                    ,NO   ,   ,      ,68.417,17.65,200.0,2011-02-03,2021-06-01
183,011930, 99999 ,NARVIK III/FRAMNES            ,NO   ,   ,ENNK  ,68.467,17.5,23.0,2001-07-06,2017-04-03
184,011940, 99999 ,NARVIK III                    ,NO   ,   ,ENNK  ,68.467,17.5,23.0,1973-01-01,2004-12-31
185,011960, 99999 ,TENNEVOLL                     ,NO   ,   ,      ,68.75,17.817,21.0,1973-01-01,2002-08-08
186,011980, 99999 ,DIVIDALEN II                  ,NO   ,   ,      ,68.783,19.7,204.0,2010-01-14,2021-05-31
187,011990, 99999 ,SIHCCAJAVRI                   ,NO   ,   ,      ,68.75,23.533,382.0,1949-01-01,2021-06-01
188,012030, 99999 ,KRAKENES                      ,NO   ,   ,      ,62.033,4.9830000000000005,41.0,1931-09-04,2021-06-01
189,012050, 99999 ,SVINOY LH                     ,NO   ,   ,      ,62.333,5.267,37.2,1973-01-01,2021-06-01
190,012070, 99999 ,FISKABYGD                     ,NO   ,   ,      ,62.1,5.582999999999999,41.0,2004-05-10,2018-06-30
191,012090, 99999 ,ORSTA-VOLDA/HOVDEN            ,NO   ,   ,ENOV  ,62.183,6.067,74.0,1984-12-11,2021-06-01
192,012091, 99999 ,ORSTA-VOLDA/HOVD              ,NO   ,   ,ENOV  ,62.183,6.05,74.0,1984-09-10,1984-11-27
193,012100, 99999 ,VIGRA                         ,NO   ,   ,ENAL  ,62.56,6.11,21.0,1973-01-01,2021-06-01
194,012120, 99999 ,ONA II                        ,NO   ,   ,      ,62.867,6.5329999999999995,15.0,1955-01-01,2021-06-01
195,012140, 99999 ,REKDAL                        ,NO   ,   ,      ,62.65,6.767,43.0,2009-01-12,2021-05-29
196,012150, 99999 ,HJELVIK MYRBO                 ,NO   ,   ,      ,62.62,7.23,35.0,1973-01-01,2009-06-30
197,012160, 99999 ,HJELVIK I ROMSDAL             ,NO   ,   ,      ,62.617,7.2170000000000005,16.0,1973-12-26,2002-05-27
198,012161, 99999 ,GJERMUNDNES                   ,NO   ,   ,      ,62.617,7.167000000000001,49.0,2004-04-12,2004-04-12
199,012170, 99999 ,ARO                           ,NO   ,   ,ENML  ,62.745,7.263,3.0,1976-02-01,2021-06-01
200,012180, 99999 ,TAFJORD                       ,NO   ,   ,      ,62.233000000000004,7.417000000000001,17.0,1973-01-01,2021-06-01
201,012200, 99999 ,MANNEN                        ,NO   ,   ,      ,62.45,7.767,1294.0,2010-03-15,2021-06-01
202,012210, 99999 ,TAGDALEN                      ,NO   ,   ,      ,63.05,9.083,415.0,2008-01-15,2021-05-24
203,012220, 99999 ,                              ,     ,   ,      ,,,,1973-01-01,1975-12-31
204,012230, 99999 ,KVERNBERGET                   ,NO   ,   ,ENKB  ,63.111999999999995,7.825,62.2,1973-01-01,2021-06-01
205,012240, 99999 ,AALESUND                      ,NO   ,   ,      ,62.467,6.2170000000000005,50.0,1984-12-01,2021-06-01
206,012250, 99999 ,VEIHOLMEN                     ,NO   ,   ,      ,63.516999999999996,7.95,5.0,1973-01-01,2021-06-01
207,012270, 99999 ,INNERDALEN                    ,NO   ,   ,      ,62.717,8.783,405.0,1973-01-01,2021-06-01
208,012273, 99999 ,TINGVOLL-HANEM                ,NO   ,   ,      ,62.833,8.3,69.0,2005-01-01,2015-01-08
209,012280, 99999 ,SULA                          ,NO   ,   ,      ,63.85,8.467,6.0,1973-01-01,2021-05-31
210,012300, 99999 ,BJORLI                        ,NO   ,   ,      ,62.266999999999996,8.2,579.0,1973-01-01,2021-06-01
211,012310, 99999 ,LESJASKOG                     ,NO   ,   ,      ,62.233000000000004,8.367,621.0,1977-10-30,2008-07-31
212,012320, 99999 ,VINJEORA II                   ,NO   ,   ,      ,62.45,7.85,67.0,1973-01-01,2021-06-01
213,012330, 99999 ,DOMBAAS                       ,NO   ,   ,      ,62.083,9.117,638.0,2006-11-21,2021-06-01
214,012340, 99999 ,ORKDAL-THAMSHAMN              ,NO   ,   ,      ,63.317,9.85,4.0,2006-11-21,2021-06-01
215,012350, 99999 ,DOMBAS-KIRKENAER              ,NO   ,   ,      ,62.083,9.133,645.0,1936-01-01,1976-06-02
216,012360, 99999 ,KJOREMSGRENDE                 ,NO   ,   ,      ,62.1,9.05,626.0,2005-02-18,2010-01-04
217,012370, 99999 ,HITRA                         ,NO   ,   ,      ,63.516999999999996,9.117,13.0,2005-04-02,2021-06-01
218,012380, 99999 ,FOKSTUA II                    ,NO   ,   ,      ,62.117,9.283,974.0,1973-01-01,2021-06-01
219,012390, 99999 ,HJERKINN II                   ,NO   ,   ,      ,62.217,9.55,1012.0,2010-09-07,2021-06-01
220,012400, 99999 ,HALTEN FYR                    ,NO   ,   ,      ,64.167,9.4,16.0,1985-01-10,2021-06-01
221,012410, 99999 ,ORLAND                        ,NO   ,   ,ENOL  ,63.699,9.604,8.5,1973-01-01,2021-06-01
222,012420, 99999 ,AFJORD II                     ,NO   ,   ,      ,63.967,10.217,30.0,2008-01-15,2021-05-31
223,012430, 99999 ,SONGLI                        ,NO   ,   ,      ,63.333,9.65,300.0,1973-01-01,1976-11-19
224,012450, 99999 ,OPPDAL-SETER                  ,NO   ,   ,      ,62.6,9.667,606.0,1976-02-01,2021-06-01
225,012480, 99999 ,VALLERSUND                    ,NO   ,   ,      ,63.85,9.732999999999999,4.0,1973-01-01,1975-12-19
226,012500, 99999 ,FOLLDAL-FREDHEIM              ,NO   ,   ,      ,62.133,10.0,694.0,2011-09-28,2021-06-01
227,012520, 99999 ,BERKAK-LYNGHOLT               ,NO   ,   ,      ,62.817,10.017000000000001,475.0,1973-01-01,2008-09-30
228,012530, 99999 ,SOKNEDAL                      ,NO   ,   ,      ,62.95,10.183,299.0,2009-01-12,2021-06-01
229,012540, 99999 ,KOTSOY                        ,NO   ,   ,      ,62.983000000000004,10.55,127.0,2009-01-12,2021-06-01
230,012570, 99999 ,TRONDHEIM/VOLL                ,NO   ,   ,      ,63.417,10.45,131.5,2004-04-06,2021-06-01
231,012580, 99999 ,TRONDHEIM (TYHOLT)            ,NO   ,   ,      ,63.417,10.433,113.0,1973-01-01,1981-07-14
232,012590, 99999 ,BUHOLMRASA LH                 ,NO   ,   ,      ,64.4,10.45,18.4,1973-01-01,2021-06-01
233,012620, 99999 ,NORDOYAN FYR                  ,NO   ,   ,      ,64.8,10.55,33.0,1928-01-02,2021-06-01
234,012650, 99999 ,TYNSET-HANSMOEN               ,NO   ,   ,      ,62.266999999999996,10.732999999999999,482.3,1949-01-01,2021-06-01
235,012680, 99999 ,                              ,     ,   ,      ,,,,1973-01-01,1975-01-25
236,012700, 99999 ,KVITHAMAR                     ,NO   ,   ,      ,63.483000000000004,10.883,40.0,2011-10-03,2021-06-01
237,012710, 99999 ,VAERNES                       ,NO   ,   ,ENVA  ,63.458,10.94,17.1,1940-04-13,2021-06-01
238,012720, 99999 ,FROSTA                        ,NO   ,   ,      ,63.567,10.7,70.0,2011-09-29,2021-06-01
239,012730, 99999 ,SELBU                         ,NO   ,   ,      ,63.233000000000004,11.017000000000001,160.0,2007-10-16,2021-06-01
240,012740, 99999 ,SELBU-STUBBE                  ,NO   ,   ,      ,63.2,11.117,242.0,1973-01-01,2006-11-15
241,012770, 99999 ,STEINKJER                     ,NO   ,   ,      ,64.017,11.45,80.0,1973-01-01,2021-06-01
242,012771, 99999 ,LEVANGER-EGGEN                ,NO   ,   ,      ,63.717,11.232999999999999,97.0,1973-01-01,1973-02-16
243,012780, 99999 ,VERDAL-REPPE                  ,NO   ,   ,      ,63.783,11.683,83.0,1985-01-02,2018-10-31
244,012800, 99999 ,NAMDALSEID-VENGSTAD           ,NO   ,   ,      ,64.133,11.333,118.0,1973-01-01,2008-12-31
245,012810, 99999 ,NAMSSKOGAN                    ,NO   ,   ,      ,64.733,12.85,140.0,2007-01-05,2021-05-24
246,012820, 99999 ,RORVIK/RYUM                   ,NO   ,   ,ENRM  ,64.85,11.232999999999999,14.0,1995-09-01,2021-06-01
247,012823, 99999 ,RORVIK/RYUM                   ,NO   ,   ,      ,64.85,11.232999999999999,14.0,1991-08-27,1995-08-31
248,012870, 99999 ,SOLENDET                      ,NO   ,   ,      ,62.683,11.817,747.0,2008-01-15,2021-05-31
249,012880, 99999 ,ROROS                         ,NO   ,   ,      ,62.567,11.383,630.0,1973-01-01,2021-06-01
250,012890, 99999 ,ROROS LUFTHAVN                ,NO   ,   ,ENRO  ,62.583,11.35,626.0,1984-09-09,2004-12-30
251,012891, 99999 ,ROROS/AIRPORT                 ,NO   ,   ,ENRO  ,62.583,11.383,626.0,1979-03-01,1984-08-17
252,012900, 99999 ,NAMSOS AIRPORT                ,NO   ,   ,ENNM  ,64.467,11.583,2.0,1973-04-01,2021-06-01
253,012910, 99999 ,GARTLAND                      ,NO   ,   ,      ,64.533,12.383,95.0,2009-01-12,2021-06-01
254,012920, 99999 ,MERAKER-UTSYN                 ,NO   ,   ,      ,63.417,11.7,240.0,1973-01-01,2004-09-30
255,012930, 99999 ,MERAKER-EGGE                  ,NO   ,   ,      ,63.417,11.732999999999999,171.0,2005-02-15,2021-06-01
256,012940, 99999 ,                              ,     ,   ,      ,,,,1973-01-01,1974-06-29
257,012950, 99999 ,HOYLANDET                     ,NO   ,   ,      ,64.55,12.15,27.0,1973-01-01,2007-06-12
258,012960, 99999 ,BERG I SNASA                  ,NO   ,   ,      ,64.25,12.417,127.0,1973-01-01,1977-06-06
259,012980, 99999 ,NORDLI-HOLAND                 ,NO   ,   ,      ,64.45,13.717,433.0,1973-01-01,2019-10-16
260,013000, 99999 ,GULLFAKS C                    ,NO   ,   ,      ,61.2,2.267,78.0,2001-06-01,2021-06-01
261,013005, 99999 ,STATFJORD OIL PLATFORM HELIPO ,FO   ,   ,ENSF  ,61.25,1.85,117.7,1984-12-04,2021-06-01
262,013040, 99999 ,YTTEROYANE FYR                ,NO   ,   ,      ,61.567,4.683,25.0,1984-09-01,2021-05-20
263,013060, 99999 ,HELLISOY FYR                  ,NO   ,   ,      ,60.75,4.717,23.0,1973-01-01,2004-12-29
264,013070, 99999 ,FEDJE                         ,NO   ,   ,      ,60.75,4.717,20.0,2005-02-18,2021-06-01
265,013080, 99999 ,FURUNESET                     ,NO   ,   ,      ,61.3,5.05,7.0,2011-09-28,2021-06-01
266,013090, 99999 ,KINN ISLAND                   ,NO   ,   ,      ,61.567,4.8,10.0,1931-01-04,2005-10-22
267,013100, 99999 ,FLORO                         ,NO   ,   ,ENFL  ,61.583999999999996,5.025,11.3,1980-04-07,2021-06-01
268,013110, 99999 ,FLESLAND                      ,NO   ,   ,ENBR  ,60.293,5.218,51.8,1973-01-01,2021-06-01
269,013140, 99999 ,FOSSMARK                      ,NO   ,   ,      ,60.516999999999996,5.7170000000000005,10.0,2012-06-15,2021-06-01
270,013150, 99999 ,EVANGER                       ,NO   ,   ,      ,60.633,6.1,17.0,2010-12-14,2021-06-01
271,013160, 99999 ,BERGEN-FREDRIKSBERG           ,NO   ,   ,      ,60.4,5.317,40.0,1973-01-01,1985-12-30
272,013170, 99999 ,BERGEN/FLORIDA                ,NO   ,   ,      ,60.383,5.332999999999999,36.0,1973-01-01,2021-06-01
273,013180, 99999 ,SANDANE                       ,NO   ,   ,      ,61.783,6.183,51.0,2005-06-14,2017-12-31
274,013190, 99999 ,TAKLE                         ,NO   ,   ,      ,61.033,5.382999999999999,38.0,1973-01-01,2021-06-01
275,013200, 99999 ,SANDANE/ANDA                  ,NO   ,   ,ENSD  ,61.833,6.117000000000001,60.0,1981-09-04,2021-06-01
276,013210, 99999 ,STRYN                         ,NO   ,   ,      ,61.9,6.55,208.0,1973-01-01,2021-06-01
277,013220, 99999 ,FORDE-TEFRE                   ,NO   ,   ,      ,61.467,5.917000000000001,64.0,1973-01-01,2017-12-23
278,013230, 99999 ,BRINGELAND                    ,NO   ,   ,ENBL  ,61.393,5.763999999999999,327.0,1984-05-02,2021-06-01
279,013250, 99999 ,MODALEN II                    ,NO   ,   ,      ,60.833,5.95,114.0,1973-01-01,2008-09-24
280,013260, 99999 ,MODALEN III                   ,NO   ,   ,      ,60.85,5.983,125.0,2008-10-08,2021-06-01
281,013270, 99999 ,KVAMSKOGEN-JONSHOGDI          ,NO   ,   ,      ,60.383,5.9670000000000005,455.0,2006-11-21,2021-06-01
282,013280, 99999 ,KVAMSKOGEN                    ,NO   ,   ,      ,60.4,5.917000000000001,408.0,1973-01-01,2006-07-26
283,013290, 99999 ,KVAMSOY                       ,NO   ,   ,      ,60.35,6.267,50.0,2005-02-18,2021-06-01
284,013300, 99999 ,OMASTRAND                     ,NO   ,   ,      ,60.217,5.983,6.0,1973-01-01,2005-09-10
285,013320, 99999 ,FJAERLAND BREMUSEET           ,NO   ,   ,      ,61.43,6.77,3.0,2006-02-01,2021-06-01
286,013360, 99999 ,BULKEN                        ,NO   ,   ,      ,60.65,6.2170000000000005,328.0,1973-01-01,2021-06-01
287,013370, 99999 ,VOSSEVANGEN                   ,NO   ,   ,      ,60.633,6.433,55.0,2005-02-18,2021-06-01
288,013380, 99999 ,VANGSNES                      ,NO   ,   ,      ,61.167,6.65,51.0,2004-07-06,2021-06-01
289,013390, 99999 ,VANGSNES                      ,NO   ,   ,      ,61.167,6.65,53.0,1973-01-01,2001-11-02
290,013400, 99999 ,FET I EIDFJORD                ,NO   ,   ,      ,60.42,7.28,737.0,2005-07-26,2021-06-01
291,013410, 99999 ,EIDFJORD-BU                   ,NO   ,   ,      ,60.467,6.867000000000001,166.0,1983-01-01,2007-02-27
292,013420, 99999 ,ULLENSVANG                    ,NO   ,   ,      ,60.317,6.65,12.0,1973-01-01,2021-06-01
293,013440, 99999 ,MJOLFJELL                     ,NO   ,   ,      ,60.7,6.95,695.0,1973-01-01,2021-06-01
294,013450, 99999 ,KLEVAVATNET                   ,NO   ,   ,      ,60.717,7.2170000000000005,960.0,1973-10-07,2021-05-04
295,013460, 99999 ,MIDTSTOVA                     ,NO   ,   ,      ,60.65,7.267,1162.0,2011-11-25,2021-06-01
296,013470, 99999 ,SOGNDAL HAUKASEN              ,NO   ,   ,ENSG  ,61.156000000000006,7.1370000000000005,511.0,1985-01-18,2021-06-01
297,013471, 99999 ,SOGNDAL/HAUKASEN              ,NO   ,   ,ENSG  ,61.167,7.132999999999999,498.0,1984-08-01,1984-12-17
298,013500, 99999 ,FINSEVATN                     ,NO   ,   ,      ,60.6,7.5329999999999995,1208.0,2003-03-30,2021-06-01
299,013510, 99999 ,FINSE III                     ,NO   ,   ,      ,60.6,7.5,1224.0,1973-01-02,2001-12-10
300,013520, 99999 ,SANDHAUG                      ,NO   ,   ,      ,60.183,7.483,1250.0,2004-01-07,2021-06-01
301,013550, 99999 ,LAERDAL IV                    ,NO   ,   ,      ,61.1,7.5,5.0,1973-01-01,2021-06-01
302,013560, 99999 ,FANNARAKI                     ,FO   ,   ,      ,61.516999999999996,7.9,2062.0,1988-11-25,2014-08-27
303,013570, 99999 ,HOLLEKOLTEN                   ,NO   ,   ,      ,60.867,8.517000000000001,804.2,1973-01-01,2021-06-01
304,013580, 99999 ,HEMSEDAL II                   ,NO   ,   ,      ,60.85,8.6,604.0,2011-09-29,2021-06-01
305,013590, 99999 ,GEILO-OLDEBRATEN              ,NO   ,   ,      ,60.533,8.2,773.0,1973-01-01,2021-05-31
306,013591, 99999 ,HAUGASTOL                     ,NO   ,   ,      ,60.516999999999996,7.867000000000001,988.0,2007-03-07,2007-03-07
307,013600, 99999 ,BRATA-SLETTOM                 ,NO   ,   ,      ,61.9,7.9,664.0,1973-01-01,2021-05-29
308,013610, 99999 ,GROTLI III                    ,NO   ,   ,      ,62.016999999999996,7.667000000000001,872.0,1973-01-01,2021-06-01
309,013620, 99999 ,JUVVASSHOE                    ,NO   ,   ,      ,61.667,8.367,1894.0,2009-06-26,2021-06-01
310,013630, 99999 ,                              ,     ,   ,      ,,,,1973-01-01,1974-09-06
311,013640, 99999 ,FILEFJELL                     ,NO   ,   ,      ,61.183,8.117,955.1,1949-01-01,2021-06-01
312,013650, 99999 ,BEITOSTOLEN II                ,NO   ,   ,      ,61.251000000000005,8.917,965.0,1973-04-04,2021-06-01
313,013660, 99999 ,SOGNEFJELL                    ,NO   ,   ,      ,61.567,8.0,1413.0,1979-03-01,2021-06-01
314,013670, 99999 ,FAGERNES                      ,NO   ,   ,      ,60.983000000000004,9.217,365.4,1982-10-01,2021-06-01
315,013671, 99999 ,BEITOSTOLEN                   ,NO   ,   ,      ,61.233000000000004,8.933,828.0,1973-01-01,1980-11-05
316,013680, 99999 ,LEIRIN                        ,NO   ,   ,ENFG  ,61.016000000000005,9.288,822.0,1988-10-14,2021-05-31
317,013690, 99999 ,ABJORSBRATEN                  ,NO   ,   ,      ,60.917,9.283,639.0,1988-10-01,2017-12-30
318,013700, 99999 ,SKABU                         ,NO   ,   ,      ,61.516999999999996,9.4,928.0,1973-01-01,2021-06-01
319,013710, 99999 ,LOKEN I VOLBU                 ,NO   ,   ,      ,61.117,9.067,521.0,1973-01-01,2021-06-01
320,013720, 99999 ,NESBYEN-SKOGLUND              ,NO   ,   ,      ,60.567,9.133,167.0,1973-01-01,2004-01-21
321,013730, 99999 ,NESBYEN-TODOKK                ,NO   ,   ,      ,60.567,9.133,166.0,1973-01-01,2021-06-01
322,013740, 99999 ,VEST-TORPA II                 ,NO   ,   ,      ,60.933,10.033,542.0,1981-05-01,2021-06-01
323,013741, 99999 ,                              ,     ,   ,      ,,,,1973-01-01,1979-08-10
324,013743, 99999 ,FAGERNES/LEIRIN   &           ,NO   ,   ,      ,61.0,9.3,822.0,1988-01-05,1988-09-13
325,013750, 99999 ,KVITFJELL                     ,NO   ,   ,      ,61.467,10.133,1028.0,1973-01-01,2021-06-01
326,013755, 99999 ,GULLFAX (PLATFORM)            ,NO   ,   ,ENGC  ,61.033,2.033,10.0,1989-11-15,2021-06-01
327,013760, 99999 ,GULSVIK II                    ,NO   ,   ,      ,60.383,9.6,142.0,1973-01-01,2021-06-01
328,013780, 99999 ,LILLEHAMMER-SAETHERENGEN      ,NO   ,   ,      ,61.1,10.467,239.0,1973-01-01,2021-06-01
329,013790, 99999 ,SOR-NESSET                    ,NO   ,   ,      ,61.883,10.15,739.0,1973-01-01,2005-12-09
330,013800, 99999 ,VENABU                        ,NO   ,   ,      ,61.65,10.117,930.0,1985-01-10,2021-06-01
331,013801, 99999 ,KITTILBU                      ,NO   ,   ,      ,61.167,9.967,816.0,1974-11-14,1984-08-27
332,013810, 99999 ,APELSVOLL                     ,NO   ,   ,      ,60.7,10.867,264.0,2011-10-03,2021-06-01
333,013820, 99999 ,KISE                          ,NO   ,   ,      ,60.766999999999996,10.8,128.0,1973-01-01,2021-06-01
334,013830, 99999 ,EVENSTAD-DIH                  ,NO   ,   ,      ,61.4,11.08,255.0,1973-01-01,2021-06-01
335,013839, 99999 ,HAMAR / STAFSBERG             ,NO   ,   ,ENHA  ,60.817,11.067,223.0,1987-02-05,1990-02-22
336,013840, 99999 ,GARDERMOEN                    ,NO   ,   ,ENGM  ,60.193999999999996,11.1,207.6,1940-05-11,2021-06-01
337,013850, 99999 ,HAMER                         ,NO   ,   ,      ,60.817,11.067,222.3,2006-10-24,2021-06-01
338,013860, 99999 ,HAMAR II                      ,NO   ,   ,      ,60.8,11.1,132.0,2009-07-01,2021-06-01
339,013870, 99999 ,FAVANG                        ,NO   ,   ,      ,61.45,10.183,200.0,2011-09-29,2021-06-01
340,013890, 99999 ,RENA AP                       ,NO   ,   ,      ,61.183,11.367,255.7,1973-01-01,2021-06-01
341,013910, 99999 ,FLISA                         ,NO   ,   ,      ,60.617,12.017000000000001,188.0,1973-01-01,2005-03-31
342,013920, 99999 ,FLISA II                      ,NO   ,   ,      ,60.617,12.017000000000001,185.0,2005-02-18,2021-06-01
343,013930, 99999 ,DREVSJO                       ,NO   ,   ,      ,61.883,12.033,673.5,1973-01-01,2021-06-01
344,013970, 99999 ,TRYSIL VEGSTASJON             ,NO   ,   ,      ,61.3,12.267000000000001,361.4,1973-01-01,2021-06-01
345,014000, 99999 ,EKOFISK                       ,NO   ,   ,      ,56.55,3.217,48.8,1998-12-23,2020-09-01
346,014010, 99999 ,FRIGG                         ,NO   ,   ,      ,59.983000000000004,2.25,48.0,2001-06-01,2006-07-18
347,014030, 99999 ,UTSIRA FYR                    ,NO   ,   ,      ,59.3,4.867,56.3,1928-01-02,2021-06-01
348,014033, 99999 ,EKOFISK OIL PLTFRM            ,NO   ,   ,ENEK  ,56.55,3.25,48.8,1981-05-06,2021-06-01
349,014035, 99999 ,KARMOY                        ,NO   ,   ,      ,59.35,5.2170000000000005,23.0,1975-11-01,1984-08-07
350,014060, 99999 ,SLATTEROY FYR                 ,NO   ,   ,      ,59.917,5.067,16.0,1973-01-01,2021-06-01
351,014080, 99999 ,KARMOY                        ,NO   ,   ,ENHD  ,59.345,5.207999999999999,26.2,1984-09-09,2021-06-01
352,014090, 99999 ,SKUDENES                      ,NO   ,   ,      ,59.15,5.25,7.0,2005-02-18,2005-10-28
353,014110, 99999 ,KVITSOY - NORDBO              ,NO   ,   ,      ,59.067,5.417000000000001,22.0,2005-06-12,2021-05-31
354,014120, 99999 ,OBRESTAD                      ,NO   ,   ,      ,58.65,5.567,26.0,1973-01-01,2021-06-01
355,014130, 99999 ,SAERHEIM                      ,NO   ,   ,      ,58.75,5.65,87.0,2011-09-28,2021-06-01
356,014140, 99999 ,ROVER                         ,NO   ,   ,      ,59.433,5.067,25.0,1989-05-20,2021-06-01
357,014150, 99999 ,SOLA                          ,NO   ,   ,ENZV  ,58.876999999999995,5.638,8.8,1940-04-10,2021-06-01
358,014160, 99999 ,STAVANGER VAALAND             ,NO   ,   ,      ,58.95,5.733,72.0,2008-07-24,2021-06-01
359,014170, 99999 ,NEDRE VATS                    ,NO   ,   ,      ,59.483000000000004,5.75,65.0,1973-01-03,2021-06-01
360,014180, 99999 ,AUSTEVOLL                     ,NO   ,   ,      ,60.016999999999996,5.2,32.0,1973-01-01,2021-06-01
361,014190, 99999 ,LIARVATN                      ,NO   ,   ,      ,59.05,6.117000000000001,300.0,2010-07-02,2021-06-01
362,014211, 99999 ,INDRE MATRE                   ,NO   ,   ,      ,59.85,6.0,24.0,2002-03-14,2002-03-14
363,014220, 99999 ,FISTER SIGMUNDSTAD            ,NO   ,   ,      ,59.167,6.0329999999999995,25.0,2005-01-01,2021-06-01
364,014230, 99999 ,FISTER-TONNEVIK               ,NO   ,   ,      ,59.167,6.05,50.0,1973-01-01,2004-12-31
365,014240, 99999 ,SAUDA                         ,NO   ,   ,      ,59.65,6.367000000000001,6.0,1973-01-01,2021-06-01
366,014250, 99999 ,EIK HOVE                      ,NO   ,   ,      ,58.516999999999996,6.517,66.0,1973-01-01,2021-06-01
367,014260, 99999 ,EIGEROYA                      ,NO   ,   ,      ,58.433,5.867000000000001,49.0,2004-04-25,2021-06-01
368,014270, 99999 ,LISTA FYR                     ,NO   ,   ,      ,58.117,6.567,14.0,1928-01-01,2021-06-01
369,014280, 99999 ,LISTA                         ,NO   ,   ,ENLI  ,58.099,6.626,8.8,1973-01-01,2007-08-13
370,014281, 99999 ,ULA OIL PLATFORM              ,NO   ,   ,ENLA  ,59.111000000000004,2.846,94.0,2013-08-06,2021-06-01
371,014300, 99999 ,MANDAL II                     ,NO   ,   ,      ,58.016999999999996,7.45,138.0,1973-01-01,2021-06-01
372,014310, 99999 ,SIRDAL-SINNES                 ,NO   ,   ,      ,58.933,6.917000000000001,557.0,2007-08-06,2021-05-31
373,014320, 99999 ,SIRDAL-TJORHOM                ,NO   ,   ,      ,58.883,6.85,500.0,1974-11-14,2010-03-31
374,014321, 99999 ,FIDJELAND                     ,NO   ,   ,      ,58.967,6.933,568.0,2007-03-07,2007-03-07
375,014330, 99999 ,MIDTLAEGER                    ,NO   ,   ,      ,59.833,6.983,1081.0,1973-01-01,2015-05-28
376,014340, 99999 ,VAAGSLI                       ,NO   ,   ,      ,59.766999999999996,7.367000000000001,822.0,2004-04-06,2021-06-01
377,014350, 99999 ,HAUKELISETER TESTFELT         ,NO   ,   ,      ,59.817,7.2170000000000005,989.5,1985-01-11,2021-06-01
378,014360, 99999 ,LINDESNES FYR                 ,NO   ,   ,      ,57.983000000000004,7.05,13.0,1973-01-01,2021-06-01
379,014390, 99999 ,KONSMO-HOYLAND                ,NO   ,   ,      ,58.25,7.442,260.0,1973-01-01,2021-06-01
380,014400, 99999 ,BLASJO                        ,NO   ,   ,      ,59.333,6.867000000000001,1104.6,1973-01-01,2021-05-31
381,014410, 99999 ,HOVDEN-LUNDANE                ,NO   ,   ,      ,59.583,7.382999999999999,836.0,1983-01-01,2021-06-01
382,014420, 99999 ,BYGLANDSFJORD                 ,NO   ,   ,      ,58.667,7.8,211.0,1973-01-01,2021-06-01
383,014440, 99999 ,VALLE                         ,NO   ,   ,      ,59.2,7.517,302.0,2011-09-26,2021-06-01
384,014450, 99999 ,SKAFSA                        ,NO   ,   ,      ,59.45,8.0,77.0,1973-01-01,1989-11-13
385,014460, 99999 ,OYFJELL-TROVATN               ,NO   ,   ,      ,59.567,8.2,714.0,1983-01-01,2004-07-31
386,014470, 99999 ,HOYDALSMO II                  ,NO   ,   ,      ,59.5,8.2,562.0,2006-11-21,2021-06-01
387,014480, 99999 ,OKSOY FYR                     ,NO   ,   ,      ,58.067,8.05,8.0,1949-01-01,2021-06-01
388,014490, 99999 ,GJERSTAD                      ,NO   ,   ,      ,58.867,9.033,32.0,2012-01-05,2021-06-01
389,014500, 99999 ,MOSSTRAND II                  ,NO   ,   ,      ,59.833,8.183,977.0,1973-01-01,2021-06-01
390,014520, 99999 ,KJEVIK                        ,NO   ,   ,ENCN  ,58.20399999999999,8.085,17.4,1940-05-01,2021-06-01
391,014530, 99999 ,HYNNEKLEIV                    ,NO   ,   ,      ,58.6,8.417,162.0,2012-01-05,2021-06-01
392,014550, 99999 ,TVEITSUND                     ,NO   ,   ,      ,59.033,8.517000000000001,252.0,1973-01-01,2021-06-01
393,014590, 99999 ,NELAUG                        ,NO   ,   ,      ,58.65,8.633,142.0,1973-01-01,2021-06-01
394,014600, 99999 ,GULLHOLMEN                    ,NO   ,   ,      ,59.433,10.583,14.0,2012-11-02,2021-06-01
395,014610, 99999 ,                              ,     ,   ,      ,,,,1973-01-01,1974-09-30
396,014611, 99999 ,GAUSTATOPPEN                  ,NO   ,   ,      ,59.85,8.65,1803.7,2014-06-05,2018-10-22
397,014620, 99999 ,PORSGRUNN                     ,NO   ,   ,      ,59.083,9.667,90.0,2013-07-29,2021-06-01
398,014630, 99999 ,AS                            ,NO   ,   ,      ,59.65,10.767000000000001,89.0,2011-09-29,2021-06-01
399,014640, 99999 ,LANDVIK                       ,NO   ,   ,      ,58.333,8.517000000000001,6.0,2011-09-28,2021-06-01
400,014650, 99999 ,TORUNGEN FYR                  ,NO   ,   ,      ,58.4,8.783,15.0,1973-01-01,2021-06-01
401,014660, 99999 ,KJELLER AP                    ,NO   ,   ,      ,59.967,11.033,109.0,2011-09-28,2021-06-01
402,014670, 99999 ,LYNGOR FYR                    ,NO   ,   ,      ,58.633,9.15,5.0,1973-01-01,2021-06-01
403,014680, 99999 ,KONGSVINGER                   ,NO   ,   ,      ,60.183,12.0,148.0,2006-10-03,2021-05-30
404,014690, 99999 ,HONEFOSS-HOYBY                ,NO   ,   ,      ,60.167,10.25,140.0,2005-07-19,2021-06-01
405,014700, 99999 ,GVARV                         ,NO   ,   ,      ,59.383,9.2,93.0,1973-01-01,2021-06-01
406,014703, 99999 ,NOTODDEN                      ,NO   ,   ,ENNO  ,59.566,9.212,19.2,1990-10-19,2021-06-01
407,014710, 99999 ,VEGGLI II                     ,NO   ,   ,      ,60.05,9.15,275.0,2006-10-03,2021-06-01
408,014730, 99999 ,KONGSBERG BRANNSTASJON        ,NO   ,   ,      ,59.617,9.633,173.0,2004-05-10,2021-06-01
409,014740, 99999 ,LYNGDAL I NUMEDAL             ,NO   ,   ,      ,59.9,9.533,294.0,1973-01-01,2006-08-31
410,014750, 99999 ,SKIEN-GEITERYGGEN             ,NO   ,   ,ENSN  ,59.183,9.567,141.0,1985-07-17,2004-12-30
411,014760, 99999 ,JOMFRULAND FYR                ,NO   ,   ,      ,58.85,9.55,5.0,1973-01-01,2021-06-01
412,014770, 99999 ,KONNERUD                      ,NO   ,   ,      ,59.717,10.15,193.0,1973-01-01,2021-06-01
413,014780, 99999 ,SVENNER LH                    ,NO   ,   ,      ,58.967,10.15,15.0,1973-01-01,2021-06-01
414,014800, 99999 ,DRAMMEN BERSKOG               ,NO   ,   ,      ,59.75,10.133,8.0,2005-02-18,2021-06-01
415,014810, 99999 ,MELSOM                        ,NO   ,   ,      ,59.233000000000004,10.35,26.0,1974-05-19,2021-06-01
416,014820, 99999 ,FERDER LH                     ,NO   ,   ,      ,59.033,10.517000000000001,7.7,1931-01-01,2021-06-01
417,014825, 99999 ,TORP                          ,NO   ,   ,ENTO  ,59.187,10.259,87.2,2005-01-01,2021-06-01
418,014830, 99999 ,TORP                          ,NO   ,   ,      ,59.183,10.267000000000001,88.0,1973-01-01,2021-06-01
419,014840, 99999 ,AURSKOG                       ,NO   ,   ,      ,59.917,11.583,128.0,1973-01-01,2021-05-29
420,014843, 99999 ,OSEBERG                       ,NO   ,   ,ENOA  ,59.317,10.45,15.0,1990-10-19,2021-06-01
421,014850, 99999 ,DANDE-GALLEBERG               ,NO   ,   ,      ,59.617,10.217,60.0,2011-09-28,2021-06-01
422,014860, 99999 ,ASKER                         ,NO   ,   ,      ,59.85,10.433,163.0,2004-05-10,2021-05-30
423,014870, 99999 ,ALNA                          ,NO   ,   ,      ,59.933,10.833,90.0,2004-09-24,2015-06-01
424,014880, 99999 ,HAKADAL                       ,NO   ,   ,      ,60.117,10.833,170.0,1940-04-07,2021-06-01
425,014881, 99999 ,STATFJORD B OIL PLATFORM      ,NO   ,   ,ENFB  ,61.206,1.829,142.0,2010-11-23,2021-06-01
426,014890, 99999 ,BJORNHOLT                     ,NO   ,   ,      ,60.05,10.683,360.0,2011-09-28,2021-06-01
427,014900, 99999 ,TRYVANNSHOGDA                 ,NO   ,   ,      ,59.983000000000004,10.683,528.0,1973-01-01,2021-06-01
428,014920, 99999 ,OSLO-BLINDERN                 ,NO   ,   ,      ,59.95,10.717,97.0,1973-08-03,2021-06-01
429,014930, 99999 ,SARPSBORG                     ,NO   ,   ,      ,59.283,11.117,57.0,2004-05-10,2021-06-01
430,014940, 99999 ,RYGGE                         ,NO   ,   ,ENRY  ,59.379,10.786,53.0,1973-01-01,2021-06-01
431,014950, 99999 ,STROMTANGEN FYR               ,NO   ,   ,      ,59.15,10.833,10.0,2004-04-06,2021-06-01
432,014960, 99999 ,HOLAND-FOSSER                 ,NO   ,   ,      ,59.817,11.482999999999999,154.0,1973-01-01,2007-10-20
433,014965, 99999 ,                              ,     ,   ,      ,,,,1975-04-26,1975-05-14
434,014970, 99999 ,PRESTEBAKKE                   ,NO   ,   ,      ,59.0,11.533,157.0,1973-01-01,2010-04-09
435,014980, 99999 ,MAGNOR                        ,NO   ,   ,      ,59.967,12.217,153.0,1983-01-01,2005-08-31
436,014981, 99999 ,                              ,     ,   ,      ,,,,1973-01-01,1978-02-21
437,014983, 99999 ,STATFJORD OIL RIG &           ,NO   ,   ,      ,,,,1982-12-04,1984-11-27
438,014990, 99999 ,VAEROY                        ,NO   ,   ,      ,,,,1986-09-16,1990-03-22
439,014993, 99999 ,VAEROY                        ,NO   ,   ,ENVY  ,,,,1988-01-05,1990-07-16
440,015000, 99999 ,RAKKESTAD                     ,NO   ,   ,      ,59.383,11.383,100.0,2009-07-08,2009-12-16
441,020001, 99999 ,LJUNGBYHED                    ,SW   ,   ,ESTL  ,56.083,13.213,42.7,2004-05-10,2021-06-01
442,020120, 99999 ,RITSEM                        ,SW   ,   ,      ,67.733,17.467,521.0,1981-08-01,2005-09-24
443,020130, 99999 ,RITSEM                        ,SW   ,   ,      ,67.733,17.467,542.7,2001-06-01,2021-06-01
444,020180, 99999 ,SUORVA                        ,SW   ,   ,      ,67.533,18.233,415.0,1935-01-01,1938-12-31
445,020190, 99999 ,KATTERJAKK A                  ,SW   ,   ,      ,68.417,18.167,516.0,2008-10-27,2021-06-01
446,020200, 99999 ,KATTERJAKK                    ,SW   ,   ,      ,68.417,18.167,517.0,1977-07-01,2019-04-01
447,020220, 99999 ,ABISKO                        ,SW   ,   ,      ,68.354,18.816,392.3,2001-11-07,2021-06-01
448,020230, 99999 ,TORNEHAMN (AUT)               ,SW   ,   ,      ,68.433,18.633,512.0,1986-04-27,2005-05-26
449,020240, 99999 ,STORA SJOFALLET               ,SW   ,   ,      ,67.5,18.3,425.0,2001-06-01,2021-06-01
450,020260, 99999 ,ALUOKTA                       ,SW   ,   ,      ,67.317,18.883,385.0,2002-10-23,2005-09-30
451,020290, 99999 ,TARFALA                       ,SW   ,   ,      ,67.917,18.6,1146.0,2001-06-01,2021-06-01
452,020310, 99999 ,RENSJON                       ,SW   ,   ,      ,68.067,19.833,493.0,2001-06-01,2021-06-01
453,020320, 99999 ,TORNETRASK LAKE               ,SW   ,   ,      ,68.217,19.717,393.0,1977-07-01,2003-09-09
454,020360, 99999 ,NIKKALUOKTA                   ,SW   ,   ,      ,67.85,19.033,468.0,1977-07-01,2021-06-01
455,020380, 99999 ,LATNIVAARA                    ,SW   ,   ,      ,67.25,20.267,453.0,2001-06-01,2021-06-01
456,020430, 99999 ,ESRANGE                       ,SW   ,   ,      ,67.933,21.066999999999997,341.0,1994-03-01,1999-06-30
457,020440, 99999 ,KIRUNA                        ,SW   ,   ,ESNQ  ,67.822,20.337,459.6,1977-07-01,2021-06-01
458,020450, 99999 ,KIRUNA-SOL                    ,SW   ,   ,      ,67.833,20.417,424.0,1995-04-01,2003-09-22
459,020480, 99999 ,MALMBERGET                    ,SW   ,   ,      ,67.167,20.666999999999998,375.0,1935-01-01,1991-05-05
460,020490, 99999 ,GALLIVARE                     ,SW   ,   ,ESNG  ,67.132,20.815,313.0,1979-08-03,2021-06-01
461,020500, 99999 ,RIKSGRANSEN                   ,SW   ,   ,      ,68.417,18.117,508.0,1935-01-01,1977-06-30
462,020510, 99999 ,KARESUANDO                    ,SZ   ,   ,      ,68.45,22.5,327.1,1955-01-01,1959-12-31
463,020520, 99999 ,KVIKKJOKK         &           ,SW   ,   ,      ,66.95,17.75,337.0,1955-01-01,1977-06-30
464,020530, 99999 ,MALMBERGET                    ,SW   ,   ,      ,67.133,20.666999999999998,365.0,1955-01-01,1977-06-30
465,020540, 99999 ,NEDRE SOPPERO                 ,SW   ,   ,      ,68.05,21.75,360.0,1955-01-01,2016-04-21
466,020550, 99999 ,NAIMAKKA                      ,SW   ,   ,      ,68.683,21.533,402.0,1973-01-01,2021-06-01
467,020560, 99999 ,STENSELE                      ,SZ   ,   ,      ,65.067,17.167,330.1,1955-01-01,1959-12-31
468,020570, 99999 ,KALLAX/LULEA (AFB)            ,SW   ,   ,ESPA  ,65.55,22.133000000000003,17.0,1955-01-01,1977-06-30
469,020580, 99999 ,HAPARANDA         &           ,SW   ,   ,      ,65.833,24.15,7.0,1973-01-01,1977-06-30
470,020590, 99999 ,GADDEDE                       ,SW   ,   ,      ,64.5,14.133,318.0,1955-01-01,1977-06-30
471,020600, 99999 ,NAIMAKKA                      ,SW   ,   ,      ,68.683,21.533,403.0,1955-01-01,2004-10-21
472,020620, 99999 ,OSTERSUND FROSON AB           ,SW   ,   ,      ,63.183,14.5,376.0,1955-01-01,1977-06-30
473,020630, 99999 ,ASELE                         ,SW   ,   ,      ,64.167,17.367,329.0,1955-01-01,1977-06-30
474,020640, 99999 ,SAITTAROVA                    ,SW   ,   ,      ,67.333,22.233,240.0,1973-01-01,2021-06-01
475,020650, 99999 ,SVEG              &           ,SW   ,   ,      ,62.033,14.367,360.0,1955-01-01,1977-06-30
476,020660, 99999 ,SUNDSVALL/HARNOSAND           ,SW   ,   ,ESNN  ,62.533,17.45,4.0,1955-01-01,1977-06-30
477,020670, 99999 ,SARNA                         ,SW   ,   ,      ,61.683,13.133,505.0,1955-01-03,1977-06-30
478,020680, 99999 ,DELSBO                        ,SW   ,   ,      ,61.8,16.567,93.0,1935-01-01,1977-06-30
479,020690, 99999 ,SODERHAMN (SWE-AFB)           ,SW   ,   ,ESCL  ,61.266999999999996,17.1,26.0,1955-01-01,1977-06-30
480,020700, 99999 ,GUSTAVSFORS       &           ,SW   ,   ,      ,60.15,13.8,198.0,1973-01-01,1977-06-30
481,020710, 99999 ,NORRKOPING-SOL                ,SW   ,   ,      ,58.583,16.15,58.0,1955-01-01,1959-12-31
482,020711, 99999 ,BORLANGE                      ,SW   ,   ,      ,60.417,15.517000000000001,153.0,1973-01-01,1973-01-21
483,020720, 99999 ,PARKALOMPOLO                  ,SW   ,   ,      ,67.733,22.833000000000002,313.0,2001-06-01,2021-06-01
484,020730, 99999 ,KARLSTAD          &           ,SW   ,   ,ESSQ  ,59.367,13.467,46.0,1955-01-01,1977-06-30
485,020740, 99999 ,OREBRO/EKEBY                  ,SW   ,   ,      ,59.266999999999996,15.333,33.0,1973-01-01,1977-06-30
486,020750, 99999 ,VASTERAS/HASSLO AFB           ,SW   ,   ,ESCD  ,59.583,16.633,6.0,1973-01-01,1977-06-30
487,020760, 99999 ,UPPSALA           &           ,SW   ,   ,ESCM  ,59.883,17.6,21.0,1973-01-01,1977-06-30
488,020770, 99999 ,STOCKHOLM/BROMMA  &           ,SW   ,   ,ESSB  ,59.35,17.95,15.0,1955-01-01,1977-06-30
489,020790, 99999 ,SATENAS (SWE-AFB)             ,SW   ,   ,ESIB  ,58.433,12.7,54.0,1973-01-01,1977-06-30
490,020800, 99999 ,KARESUANDO                    ,SW   ,   ,      ,68.45,22.45,331.0,1935-01-01,2012-08-31
491,020810, 99999 ,KARESUANDO                    ,SW   ,   ,      ,68.45,22.45,330.0,1955-01-01,2021-06-01
492,020820, 99999 ,LANDSORT          &           ,SW   ,   ,      ,58.75,17.867,32.0,1973-01-01,1977-06-30
493,020830, 99999 ,GOTSKA SANDON     &           ,SW   ,   ,      ,58.4,19.2,12.0,1973-01-01,1977-06-30
494,020840, 99999 ,LANNAVAARA        &           ,SW   ,   ,      ,68.05,22.0,360.0,1955-01-01,2004-05-07
495,020850, 99999 ,RANGEDALA (AUTO)              ,SW   ,   ,      ,57.717,13.117,259.0,1973-01-01,1977-06-30
496,020860, 99999 ,LAINIO                        ,SW   ,   ,      ,67.767,22.35,317.0,1955-01-01,2005-03-17
497,020870, 99999 ,JONKOPING         &           ,SW   ,   ,ESSJ  ,57.766999999999996,14.083,226.0,1955-01-01,1977-06-30
498,020880, 99999 ,KOMPELUSVAARA                 ,SW   ,   ,      ,67.083,22.217,263.0,1973-01-01,2002-05-21
499,020890, 99999 ,OLANDS NORRA UDDE &           ,SW   ,   ,      ,57.367,17.1,4.0,1973-01-01,1977-06-30
500,020900, 99999 ,VISBY             &           ,SW   ,   ,ESSV  ,57.667,18.35,51.0,1955-01-01,1977-06-30
501,020910, 99999 ,VISBY-SOL                     ,SW   ,   ,      ,57.667,18.35,49.0,1973-01-01,1977-06-30
502,020920, 99999 ,MUODOSLOMPOLO                 ,SW   ,   ,      ,67.95,23.467,240.0,1973-01-01,2004-09-17
503,020930, 99999 ,VAXJO             &           ,SW   ,   ,      ,56.867,14.8,166.0,1973-01-01,1977-06-30
504,020940, 99999 ,UNGSKAR                       ,SW   ,   ,      ,56.033,15.8,1.0,1955-01-01,1977-06-30
505,020950, 99999 ,PAJALA                        ,SW   ,   ,      ,67.2,23.383000000000003,171.0,1955-01-01,2021-06-01
506,020960, 99999 ,PAJALA                        ,SW   ,   ,      ,67.217,23.4,168.0,1955-01-01,2008-02-18
507,020970, 99999 ,MALMO /BULLTOFTON             ,SZ   ,   ,      ,55.6,13.067,14.9,1955-01-01,1974-07-02
508,020980, 99999 ,MALMO/STURUP                  ,SW   ,   ,ESMS  ,55.55,13.367,72.0,1973-01-01,1977-06-30
509,020990, 99999 ,YSTAD             &           ,SW   ,   ,      ,55.433,13.833,34.0,1973-01-01,1977-06-30
510,021000, 99999 ,NAIMAKKA                      ,SW   ,   ,      ,68.683,21.533,403.0,1973-01-01,1977-06-30
511,021010, 99999 ,HEMAVAN                       ,SW   ,   ,ESUT  ,65.806,15.083,458.1,1973-01-02,2021-06-01
512,021020, 99999 ,STEKENJOKK                    ,SW   ,   ,      ,65.1,14.517000000000001,1036.0,1958-11-01,2021-06-01
513,021030, 99999 ,HEMAVAN-GIEREVARTO            ,SW   ,   ,      ,65.783,15.067,793.0,1987-11-18,2021-06-01
514,021040, 99999 ,HEMAVAN                       ,SW   ,   ,      ,65.817,15.083,485.0,1977-07-01,2008-02-18
515,021050, 99999 ,ABELVATTNET                   ,SW   ,   ,      ,65.533,14.982999999999999,670.0,1973-01-01,2004-02-21
516,021060, 99999 ,JOKKMOKK (SWE-AFB)            ,SW   ,   ,      ,66.6,19.833,256.0,1973-01-01,1977-06-30
517,021080, 99999 ,KLIMPFJALL                    ,SW   ,   ,      ,65.067,14.8,593.0,1977-07-01,2005-09-21
518,021090, 99999 ,ABRAUR                        ,SW   ,   ,      ,65.9,19.1,342.0,1973-01-02,1977-06-30
519,021100, 99999 ,GIELAS                        ,SW   ,   ,      ,65.333,15.067,577.0,1987-05-18,2021-06-01
520,021110, 99999 ,VIDSEL (SWE-AFB)              ,SW   ,   ,ESPE  ,65.867,20.133,180.0,1973-01-02,1977-06-30
521,021120, 99999 ,SYLARNA                       ,SW   ,   ,      ,63.05,12.267000000000001,1035.0,1977-07-01,2004-08-21
522,021140, 99999 ,NORRAKER                      ,SW   ,   ,      ,64.45,15.6,346.0,1975-08-07,1977-06-30
523,021150, 99999 ,STORLIEN-VISJOVALE&           ,SW   ,   ,      ,63.3,12.133,640.0,1955-01-01,1977-06-30
524,021160, 99999 ,MORSIL                        ,SW   ,   ,      ,63.317,13.65,400.0,1973-01-01,2005-02-21
525,021170, 99999 ,NORDMALING                    ,SW   ,   ,      ,63.567,19.5,6.0,1955-01-01,1977-06-30
526,021180, 99999 ,DIKANAS/SKANSNAS              ,SW   ,   ,      ,65.317,16.033,525.0,1973-01-01,2005-01-21
527,021190, 99999 ,KVIKKJOKK ARRENJARKA          ,SW   ,   ,      ,66.883,18.017,320.0,1973-01-01,2021-06-01
528,021200, 99999 ,KVIKKJOKK-ARRENJARKA          ,SW   ,   ,      ,66.883,18.017,315.0,1935-01-01,2013-03-31
529,021205, 99999 ,STORUMAN                      ,SW   ,   ,      ,64.95,17.7,279.0,2005-04-19,2021-06-01
530,021210, 99999 ,MIERKENIS                     ,SW   ,   ,      ,66.683,16.117,615.0,2001-06-01,2021-06-01
531,021220, 99999 ,STENUDDEN                     ,SW   ,   ,      ,66.533,17.667,453.0,1979-08-02,2004-03-21
532,021230, 99999 ,JAKKVIK                       ,SW   ,   ,      ,66.317,17.1,552.0,1973-01-01,2016-04-21
533,021240, 99999 ,ARJEPLOG                      ,SW   ,   ,      ,66.05,17.833,432.0,1977-04-05,2021-06-01
534,021250, 99999 ,OSTMARK                       ,SW   ,   ,      ,60.317,12.7,178.0,1973-01-01,1977-06-30
535,021260, 99999 ,GUNNARN                       ,SW   ,   ,      ,65.017,17.7,251.0,1973-01-01,2008-12-31
536,021270, 99999 ,STENSELE                      ,SW   ,   ,      ,65.067,17.167,327.0,1931-01-03,2005-08-23
537,021280, 99999 ,GUNNARN                       ,SW   ,   ,ESPD  ,65.0,17.7,283.0,1973-01-01,2013-04-02
538,021290, 99999 ,GUNNARN SOL (AUT)             ,SW   ,   ,      ,64.967,17.7,278.0,1973-01-01,1986-11-25
539,021300, 99999 ,ROPARUDDEN                    ,SW   ,   ,      ,66.483,16.417,481.0,1973-01-01,2016-04-21
540,021310, 99999 ,ARVIKA                        ,SW   ,   ,      ,59.667,12.583,75.0,1973-01-01,1977-06-30
541,021330, 99999 ,SNAVLUNDA                     ,SW   ,   ,      ,58.967,14.9,144.0,1973-01-01,1977-06-30
542,021350, 99999 ,BURESJON                      ,SW   ,   ,      ,65.567,17.867,393.0,1973-01-01,2021-06-01
543,021360, 99999 ,STORBERG                      ,SW   ,   ,      ,65.5,18.95,454.0,2003-05-19,2004-08-29
544,021380, 99999 ,GRUNDKALLEN                   ,SW   ,   ,      ,60.5,18.867,23.0,1973-01-01,1977-06-30
545,021410, 99999 ,TJAKAAPE                      ,SW   ,   ,      ,66.317,19.217,582.0,1973-01-01,2021-06-01
546,021420, 99999 ,JOKKMOKK                      ,SW   ,   ,ESNJ  ,66.49600000000001,20.147000000000002,275.5,1977-07-01,2000-05-10
547,021430, 99999 ,PALJAMYREN                    ,SW   ,   ,      ,66.217,19.133,570.0,1973-01-01,2003-07-31
548,021440, 99999 ,ABRAUR                        ,SW   ,   ,      ,65.983,18.933,374.0,1977-07-01,2004-06-26
549,021450, 99999 ,TELLEJAUR                     ,SW   ,   ,      ,66.15,19.633,436.0,2003-07-25,2004-03-22
550,021460, 99999 ,VAJMAT                        ,SW   ,   ,      ,66.5,19.683,324.0,2001-07-01,2016-04-21
551,021470, 99999 ,MALA-BRANNAN                  ,SW   ,   ,      ,65.15,18.6,363.0,1973-01-01,2021-06-01
552,021480, 99999 ,NORRKOPING/BRAVALLA           ,SW   ,   ,ESCK  ,58.617,16.117,27.0,1973-01-01,1977-06-30
553,021490, 99999 ,ARVIDSJAUR                    ,SW   ,   ,      ,65.6,19.267,384.0,2001-07-01,2021-06-01
554,021500, 99999 ,NYKOPING/SKAVST AFB           ,SW   ,   ,ESCJ  ,58.783,16.917,42.0,1973-01-01,1977-06-30
555,021510, 99999 ,JOKKMOKK FPL                  ,SW   ,   ,      ,66.483,20.167,275.0,1973-01-01,2021-06-01
556,021520, 99999 ,SUDOK                         ,SW   ,   ,      ,66.3,20.417,174.0,1973-01-01,2005-09-19
557,021540, 99999 ,VIDSEL                        ,SW   ,   ,ESPE  ,65.875,20.15,182.0,1977-07-01,2021-06-01
558,021550, 99999 ,HAGSHULT (SWE-AFB)            ,SW   ,   ,ESMV  ,57.3,14.133,169.0,1955-01-01,1977-06-30
559,021560, 99999 ,STENSJON (AUT)                ,SW   ,   ,      ,63.967,13.717,680.0,1977-07-01,2003-10-28
560,021580, 99999 ,FALLFORS                      ,SW   ,   ,      ,65.133,20.783,190.0,1979-07-26,2002-08-07
561,021590, 99999 ,FALLFORS                      ,SW   ,   ,ESUF  ,65.12,20.77,195.0,1996-08-01,2005-06-29
562,021600, 99999 ,NATTAVAARA                    ,SW   ,   ,      ,66.75,21.05,327.0,2001-08-29,2005-03-07
563,021610, 99999 ,NATTAVAARA                    ,SW   ,   ,      ,66.75,20.933000000000003,327.0,1973-01-01,2021-06-01
564,021620, 99999 ,MARKARYD                      ,SW   ,   ,      ,56.467,13.65,118.0,1973-01-01,1977-06-30
565,021630, 99999 ,LJUNGBYHED(SWE-AFB)           ,SW   ,   ,ESDA  ,56.083,13.232999999999999,43.0,1973-01-01,1977-06-30
566,021640, 99999 ,PALKEM                        ,SW   ,   ,      ,66.383,21.633000000000003,263.0,1973-05-01,2003-07-19
567,021660, 99999 ,RONNEBY (SWE-AFB)             ,SW   ,   ,ESDF  ,56.266999999999996,15.283,58.0,1973-01-01,1977-06-30
568,021670, 99999 ,FALSTERBO (LGT-H)             ,SW   ,   ,      ,55.383,12.817,5.0,1973-01-01,1977-06-30
569,021690, 99999 ,HEDEN                         ,SW   ,   ,ESPJ  ,65.867,21.45,36.0,2002-05-30,2002-08-01
570,021700, 99999 ,SAVAST                        ,SW   ,   ,      ,65.75,21.767,12.0,2010-11-17,2016-04-21
571,021710, 99999 ,BODEN                         ,SW   ,   ,      ,65.817,21.633000000000003,18.0,1979-08-02,2021-06-01
572,021720, 99999 ,ALVSBYN                       ,SW   ,   ,      ,65.683,20.967,50.0,1979-07-10,1979-11-23
573,021730, 99999 ,ALVSBYN                       ,SW   ,   ,      ,65.667,21.066999999999997,43.0,2001-07-01,2021-06-01
574,021740, 99999 ,LAKATRASK                     ,SW   ,   ,      ,66.283,21.133000000000003,186.0,2001-07-01,2021-06-01
575,021760, 99999 ,PITE-RONNSKAR                 ,SW   ,   ,      ,65.033,21.566999999999997,4.0,1997-09-01,2021-06-01
576,021810, 99999 ,OVERKALIX SVARTBYN            ,SW   ,   ,      ,66.267,22.85,62.0,1996-08-01,2021-06-01
577,021820, 99999 ,OVERKALIX                     ,SW   ,   ,      ,66.267,22.833000000000002,47.0,1979-08-03,2002-06-02
578,021830, 99999 ,LULEA-SOL                     ,SW   ,   ,      ,65.55,22.116999999999997,32.0,2004-08-02,2004-10-20
579,021840, 99999 ,PAHAROVA                      ,SW   ,   ,      ,66.817,22.333000000000002,229.0,2001-07-01,2021-06-01
580,021850, 99999 ,LULEA-KALLAX                  ,SW   ,   ,      ,65.55,22.133000000000003,34.0,2001-04-02,2001-10-08
581,021860, 99999 ,KALLAX                        ,SW   ,   ,ESPA  ,65.544,22.122,19.8,1977-07-01,2021-06-01
582,021880, 99999 ,RODKALLEN                     ,SW   ,   ,      ,65.317,22.383000000000003,2.0,1973-01-01,2021-06-01
583,021900, 99999 ,KORPILOMBOLO                  ,SW   ,   ,      ,66.85,23.033,180.0,2001-07-16,2004-04-02
584,021910, 99999 ,STORON                        ,SW   ,   ,      ,65.7,23.1,4.0,2001-07-01,2021-06-01
585,021960, 99999 ,HAPARANDA                     ,SW   ,   ,      ,65.833,24.15,6.0,1931-01-01,2012-12-31
586,021970, 99999 ,HAPARANDA                     ,SW   ,   ,      ,65.817,24.116999999999997,16.0,2008-10-27,2021-06-01
587,021990, 99999 ,YLINENJARVI                   ,SW   ,   ,      ,66.617,23.467,132.0,2001-07-01,2021-06-01
588,022000, 99999 ,EDEVIK                        ,SW   ,   ,      ,63.983000000000004,12.867,425.0,1977-07-01,2004-12-25
589,022020, 99999 ,TORNETRASK LAKE               ,SW   ,   ,      ,68.217,19.717,393.0,1973-01-01,1977-06-30
590,022040, 99999 ,NIKKALUOKTA                   ,SW   ,   ,      ,67.85,19.033,470.0,1973-01-01,1977-06-30
591,022060, 99999 ,STORLIEN-STORVALLEN           ,SW   ,   ,      ,63.283,12.133,583.0,1935-01-01,2013-02-28
592,022070, 99999 ,STORLIEN-VISJOVALEN A         ,SW   ,   ,      ,63.283,12.117,583.0,1973-01-01,2021-06-01
593,022090, 99999 ,SYLARNA                       ,SW   ,   ,      ,63.05,12.283,1030.0,1973-01-01,2021-06-01
594,022100, 99999 ,BLAHAMMAREN                   ,SW   ,   ,      ,63.183,12.167,1090.0,2010-09-20,2021-06-01
595,022120, 99999 ,                              ,     ,   ,      ,,,,1974-05-19,1974-05-19
596,022150, 99999 ,ARESKUTAN                     ,SW   ,   ,      ,63.433,13.083,1280.0,1997-09-01,2004-08-22
597,022160, 99999 ,MATTMAR                       ,SW   ,   ,      ,63.3,13.883,365.0,1973-01-01,2016-04-21
598,022170, 99999 ,ARE                           ,SW   ,   ,      ,63.367,13.167,435.0,2001-07-01,2016-04-21
599,022180, 99999 ,MORSIL                        ,SW   ,   ,      ,63.317,13.65,400.0,1973-01-05,2005-09-24
600,022190, 99999 ,GADDEDE A                     ,SW   ,   ,      ,64.5,14.217,550.0,2008-03-01,2021-06-01
601,022210, 99999 ,KORSVATTNET                   ,SW   ,   ,      ,63.833,13.5,717.0,1997-12-01,2021-06-01
602,022220, 99999 ,GADDEDE                       ,SW   ,   ,      ,64.5,14.167,330.0,1977-07-01,2008-02-18
603,022230, 99999 ,STEMSJON (AUT)                ,SW   ,   ,      ,63.967,13.717,680.0,1973-01-01,1977-06-30
604,022240, 99999 ,FOLLINGE-VAGSKALET            ,SW   ,   ,      ,63.766999999999996,14.433,475.0,2002-06-09,2002-06-09
605,022260, 99999 ,OSTERSUND                     ,SW   ,   ,ESNZ  ,63.2,14.5,376.0,1935-01-01,2021-06-01
606,022271, 99999 ,KALIX                         ,SW   ,   ,      ,65.85,23.133000000000003,7.0,2007-03-07,2007-03-07
607,022280, 99999 ,EDEVIK                        ,SW   ,   ,      ,64.05,12.95,453.0,1973-01-01,1977-06-30
608,022290, 99999 ,OSTERSUND-SOL                 ,SW   ,   ,      ,63.2,14.482999999999999,374.0,1997-09-01,2005-07-29
609,022300, 99999 ,GUBBHOGEN                     ,SW   ,   ,      ,64.217,15.55,310.0,1973-01-01,2021-06-01
610,022310, 99999 ,FOLLINGE                      ,SW   ,   ,      ,63.683,14.6,362.0,2001-07-01,2021-06-01
611,022320, 99999 ,NORRAKER                      ,SW   ,   ,      ,64.433,15.633,346.0,1977-07-01,2004-09-03
612,022330, 99999 ,SAXNAS                        ,SW   ,   ,      ,64.967,15.383,545.0,2001-07-01,2016-04-21
613,022340, 99999 ,STROMSUND                     ,SW   ,   ,      ,63.867,15.583,373.0,1979-01-05,1995-11-30
614,022360, 99999 ,HALLHAXASEN                   ,SW   ,   ,      ,63.766999999999996,15.333,376.0,1977-07-01,2021-06-01
615,022420, 99999 ,HOTING                        ,SW   ,   ,      ,64.083,16.233,241.0,1973-01-01,2021-06-01
616,022430, 99999 ,JUNSELE                       ,SW   ,   ,      ,63.683,16.95,214.0,1973-01-01,2021-06-01
617,022440, 99999 ,JUNSELE                       ,SW   ,   ,      ,63.683,16.95,217.0,1996-02-01,2008-02-18
618,022450, 99999 ,VILHELMINA                    ,SW   ,   ,      ,64.583,16.85,349.0,1996-08-01,2021-06-01
619,022455, 99999 ,LYCKSELE                      ,SW   ,   ,ESNL  ,64.548,18.715999999999998,214.9,1998-04-08,2021-06-01
620,022470, 99999 ,KRANGEDE                      ,SW   ,   ,      ,63.15,16.167,184.0,1973-01-01,2021-06-01
621,022480, 99999 ,KRANGEDE                      ,SW   ,   ,      ,63.167,16.167,223.0,1977-07-04,2005-02-18
622,022510, 99999 ,STORSJO KAPELL                ,SW   ,   ,      ,62.8,13.067,575.0,1973-01-01,1977-06-30
623,022520, 99999 ,IDVATTNET                     ,SW   ,   ,      ,64.45,17.083,353.0,1983-02-01,2004-09-22
624,022540, 99999 ,ASELE                         ,SW   ,   ,      ,64.167,17.317,308.0,1977-07-01,2021-06-01
625,022550, 99999 ,FRANSTA                       ,SW   ,   ,      ,62.5,16.183,75.0,1973-01-01,1977-06-30
626,022560, 99999 ,RISTRASK                      ,SW   ,   ,      ,64.733,17.4,575.0,2001-07-01,2016-04-21
627,022570, 99999 ,FLOTNINGEN                    ,SW   ,   ,      ,61.85,12.267000000000001,670.0,1973-01-01,1977-06-30
628,022580, 99999 ,VINDEL-BJORKHEDEN             ,SW   ,   ,      ,65.817,16.717,352.0,2001-11-04,2004-12-16
629,022590, 99999 ,KRAMFORS SOLLEFTEA            ,SW   ,   ,ESNK  ,63.049,17.769000000000002,10.4,1977-07-01,2021-06-01
630,022600, 99999 ,VASTMARKUM                    ,SW   ,   ,      ,63.133,18.25,143.0,1973-01-01,2021-06-01
631,022610, 99999 ,LYCKSELE                      ,SW   ,   ,      ,64.55,18.717,211.0,1973-01-01,2021-06-01
632,022620, 99999 ,VUOGGATJALME                  ,SW   ,   ,      ,66.567,16.35,500.0,1973-01-01,2004-03-06
633,022630, 99999 ,FREDRIKA                      ,SW   ,   ,      ,64.083,18.367,327.0,2001-07-01,2021-06-01
634,022640, 99999 ,FREDRIKA                      ,SW   ,   ,      ,64.083,18.417,300.0,1973-01-01,2002-10-28
635,022650, 99999 ,HEMLING                       ,SW   ,   ,      ,63.65,18.55,183.0,2001-07-01,2021-06-01
636,022660, 99999 ,VILHELMINA (AUTO)             ,SW   ,   ,      ,64.583,16.85,349.0,2002-06-08,2002-06-08
637,022670, 99999 ,ORNSKOLDSVIK                  ,SW   ,   ,ESNO  ,63.408,18.99,107.9,1979-08-02,2021-06-01
638,022690, 99999 ,SKAGSUDDE                     ,SW   ,   ,      ,63.183,19.017,11.0,1996-08-01,2021-06-01
639,022700, 99999 ,NORSJO                        ,SW   ,   ,      ,64.917,19.467,301.0,2001-06-14,2003-09-14
640,022710, 99999 ,NORSJO                        ,SW   ,   ,      ,64.933,19.383,310.0,2001-07-01,2021-06-01
641,022740, 99999 ,VINDELN                       ,SW   ,   ,      ,64.217,19.717,206.0,1996-05-01,2000-05-09
642,022760, 99999 ,NORDMALING                    ,SW   ,   ,      ,63.567,19.5,5.0,1977-07-01,1987-04-23
643,022780, 99999 ,KRANGEDE (AUTO)               ,SW   ,   ,      ,63.15,16.167,184.0,1977-07-01,2004-10-15
644,022790, 99999 ,SKILLINGMARK                  ,SW   ,   ,      ,59.867,11.967,130.0,1973-01-01,1977-06-30
645,022800, 99999 ,BLOMSKOG                      ,SW   ,   ,      ,59.283,12.05,110.0,1973-01-01,1977-06-30
646,022810, 99999 ,AMAL                          ,SW   ,   ,      ,59.05,12.7,60.0,1973-01-01,1977-06-30
647,022820, 99999 ,PETISTRASK                    ,SW   ,   ,      ,64.567,19.7,258.0,2001-07-01,2021-06-01
648,022830, 99999 ,UMEA-SOL                      ,SW   ,   ,      ,63.817,20.233,22.0,1984-07-12,1984-07-12
649,022840, 99999 ,JARNASKLUBB                   ,SW   ,   ,      ,63.433,19.683,7.0,1973-01-01,2021-06-01
650,022860, 99999 ,UMEA                          ,SW   ,   ,ESNU  ,63.792,20.283,7.3,1977-07-01,2021-06-01
651,022861, 99999 ,SODERHAMN                     ,SW   ,   ,ESCL  ,61.266999999999996,17.1,36.0,2004-07-06,2012-01-03
652,022870, 99999 ,HOLMON                        ,SW   ,   ,      ,63.8,20.866999999999997,8.0,2005-07-24,2021-06-01
653,022880, 99999 ,HOLMOGADD                     ,SW   ,   ,      ,63.6,20.75,6.0,1935-01-01,2008-01-11
654,022890, 99999 ,SYDOSTBROTTEN (LH)            ,SW   ,   ,      ,63.333,20.183,25.0,1973-01-01,2001-09-20
655,022900, 99999 ,FURUOGRUND        &           ,SW   ,   ,      ,64.917,21.233,10.0,1975-02-10,2003-01-14
656,022920, 99999 ,HOKMARKSBERGET                ,SW   ,   ,      ,64.433,21.283,105.0,2001-07-01,2016-04-21
657,022930, 99999 ,SKELLEFTEA                    ,SW   ,   ,ESNS  ,64.625,21.076999999999998,47.9,1979-08-02,2021-06-01
658,022960, 99999 ,BJUROKLUBB (LGT-H)            ,SW   ,   ,      ,64.483,21.583000000000002,36.0,1935-01-01,2003-12-22
659,022970, 99999 ,BJUROKLUBB                    ,SW   ,   ,      ,64.483,21.583000000000002,43.0,2001-06-01,2021-06-01
660,022980, 99999 ,SVARTEBORG                    ,SW   ,   ,      ,58.567,11.55,70.0,1973-01-01,1977-06-30
661,023000, 99999 ,FJALLNAS                      ,SW   ,   ,      ,62.583,12.217,780.0,2002-05-23,2006-01-02
662,023020, 99999 ,STORBO                        ,SW   ,   ,      ,61.833,12.283,665.0,2001-07-01,2016-04-21
663,023030, 99999 ,FLATRUET                      ,SW   ,   ,      ,62.733000000000004,12.732999999999999,995.0,2001-07-01,2016-04-21
664,023040, 99999 ,FLOTNINGEN                    ,SW   ,   ,      ,61.85,12.267000000000001,670.0,1977-07-01,2004-01-23
665,023050, 99999 ,NASHUVUD                      ,SW   ,   ,      ,58.9,13.25,50.0,1973-01-01,1977-06-30
666,023060, 99999 ,RORBACKSNAS                   ,SW   ,   ,      ,61.133,12.817,465.0,1977-07-01,2017-12-08
667,023070, 99999 ,IDRE FJALL                    ,SW   ,   ,      ,61.883,12.85,869.0,1973-01-01,2021-06-01
668,023080, 99999 ,TANNAS                        ,SW   ,   ,      ,62.45,12.667,724.0,1996-08-01,2021-06-01
669,023100, 99999 ,STORSJO KAPELL                ,SW   ,   ,      ,62.8,13.067,583.0,1977-07-01,2005-01-23
670,023110, 99999 ,HOGFJALLSHOTELLET             ,SW   ,   ,      ,61.15,13.117,744.0,2001-07-01,2016-04-21
671,023120, 99999 ,MALEXANDER                    ,SW   ,   ,      ,58.067,15.217,153.0,1973-01-01,1977-06-30
672,023130, 99999 ,VISINGSO                      ,SW   ,   ,ESGI  ,58.1,14.4,110.0,1973-12-09,1973-12-09
673,023140, 99999 ,LOFSDALEN                     ,SW   ,   ,      ,62.1,13.25,610.0,2001-07-29,2005-05-23
674,023141, 99999 ,TYLLINGE                      ,SW   ,   ,      ,58.016999999999996,16.067,100.0,2016-08-01,2019-09-09
675,023160, 99999 ,SARNA                         ,SW   ,   ,      ,61.7,13.183,425.0,1935-01-01,2021-06-01
676,023170, 99999 ,DRAVAGEN                      ,SW   ,   ,      ,62.1,13.617,566.0,2001-07-01,2021-06-01
677,023180, 99999 ,TANDADALEN                    ,SW   ,   ,      ,61.167,13.017000000000001,830.0,1973-01-01,2016-02-04
678,023190, 99999 ,BORTNAN                       ,SW   ,   ,      ,62.75,13.85,467.0,2001-07-01,2021-06-01
679,023191, 99999 ,AMBJORNARP                    ,SW   ,   ,      ,57.417,13.283,220.0,2016-07-26,2020-03-26
680,023201, 99999 ,TINGHALLA                     ,SW   ,   ,      ,57.967,13.85,278.0,2016-07-26,2020-03-26
681,023210, 99999 ,ALVDALEN                      ,SW   ,   ,      ,61.25,14.033,253.0,1973-01-01,2021-06-01
682,023220, 99999 ,                              ,     ,   ,      ,,,,2003-01-23,2003-07-23
683,023230, 99999 ,KLOVSJO                       ,SW   ,   ,      ,62.533,14.2,550.0,2001-11-24,2005-02-23
684,023240, 99999 ,SVEG                          ,SW   ,   ,      ,62.016999999999996,14.183,363.0,1937-01-01,2012-10-31
685,023250, 99999 ,KLOVSJOHOJDEN                 ,SW   ,   ,      ,62.5,14.15,803.0,1973-01-01,2021-06-01
686,023260, 99999 ,FREDRIKA                      ,SW   ,   ,      ,64.083,18.417,300.0,1977-07-01,2004-12-21
687,023270, 99999 ,SVEG A                        ,SW   ,   ,      ,62.05,14.4,362.0,2009-09-29,2021-06-01
688,023280, 99999 ,KRAMFORS (SWE-AFB)            ,SW   ,   ,      ,63.05,17.767,19.0,2002-12-17,2004-11-02
689,023290, 99999 ,HAMRA                         ,SW   ,   ,      ,61.667,15.0,455.0,1973-01-01,2021-06-01
690,023300, 99999 ,HUNGE                         ,SW   ,   ,      ,62.75,15.1,342.0,1974-06-27,2005-10-08
691,023310, 99999 ,HUNGE                         ,SW   ,   ,      ,62.75,15.083,343.0,2001-07-01,2021-06-01
692,023321, 99999 ,FAGERHULT                     ,SW   ,   ,      ,57.15,15.667,115.0,2016-07-26,2020-03-26
693,023330, 99999 ,LJUNGBY                       ,SW   ,   ,      ,56.833,13.917,155.0,1973-01-01,1977-06-30
694,023340, 99999 ,FINNEBY                       ,SW   ,   ,      ,62.033,15.467,261.0,1973-01-01,1977-06-30
695,023360, 99999 ,EDSBYN                        ,SW   ,   ,      ,61.383,15.833,163.0,1977-07-01,2004-02-09
696,023370, 99999 ,NORRHOG                       ,SW   ,   ,      ,62.266999999999996,15.667,320.0,1973-01-01,2016-04-21
697,023380, 99999 ,EDSBYN                        ,SW   ,   ,      ,61.367,15.717,185.0,1996-08-01,2021-06-01
698,023420, 99999 ,FRANSTA                       ,SW   ,   ,      ,62.516999999999996,16.183,105.0,1977-07-01,1996-01-03
699,023430, 99999 ,TORPSHAMMAR                   ,SW   ,   ,      ,62.5,16.283,100.0,1973-01-01,2021-06-01
700,023451, 99999 ,SJOBO                         ,SW   ,   ,      ,55.633,13.7,32.0,2016-07-26,2020-03-25
701,023460, 99999 ,DELSBO                        ,SW   ,   ,      ,61.783,16.55,90.0,1977-09-28,2003-08-18
702,023470, 99999 ,DELSBO                        ,SW   ,   ,      ,61.833,16.55,72.0,2001-07-01,2021-06-01
703,023490, 99999 ,SILLRE                        ,SW   ,   ,      ,62.766999999999996,16.733,205.0,2001-07-01,2016-04-21
704,023540, 99999 ,RASTA                         ,SW   ,   ,      ,62.433,17.35,80.0,2001-07-01,2016-04-21
705,023550, 99999 ,KUGGOREN                      ,SW   ,   ,      ,61.7,17.533,10.0,1996-08-01,2021-06-01
706,023600, 99999 ,SKELLEFTEA AIRPORT            ,SW   ,   ,ESNS  ,64.633,21.083000000000002,46.0,1974-01-10,1974-01-10
707,023610, 99999 ,HARNOSAND                     ,SW   ,   ,      ,62.633,17.95,8.0,1929-08-01,2004-09-10
708,023640, 99999 ,ORNSKOLDSVIK ARPT             ,SW   ,   ,ESNO  ,63.4,18.967,107.0,1973-10-14,1974-02-13
709,023650, 99999 ,SUNDSVALL-HARNOSAND           ,SW   ,   ,      ,62.516999999999996,17.45,8.0,1976-08-01,2005-04-17
710,023660, 99999 ,SUNDSVALL HARNOSAND           ,SW   ,   ,ESNN  ,62.528,17.444000000000003,4.9,1977-07-01,2021-06-01
711,023670, 99999 ,ALNON ISLAND                  ,SW   ,   ,      ,62.367,17.533,33.0,1984-05-29,2005-12-31
712,023680, 99999 ,BRAMON                        ,SW   ,   ,      ,62.217,17.75,18.0,1987-05-21,2021-06-01
713,023690, 99999 ,                              ,     ,   ,      ,,,,2001-09-18,2001-11-07
714,023700, 99999 ,GAVLE/SANDVIKEN AFB           ,SW   ,   ,ESSK  ,60.6,16.95,68.0,1973-08-28,1974-01-23
715,023710, 99999 ,BORLANGE (SWE-AFB)            ,SW   ,   ,ESSD  ,60.433,15.5,153.0,1973-08-10,1973-12-13
716,023750, 99999 ,ESKILSTUNA(SWE-AFB&           ,SW   ,   ,ESSU  ,59.35,16.717,40.0,1980-03-02,2003-03-13
717,023760, 99999 ,SODERHAMN (SWE-AFB)           ,SW   ,   ,      ,61.266999999999996,17.1,36.0,1977-07-01,1998-01-05
718,023780, 99999 ,SODERHAMN FLYGPLATS           ,SW   ,   ,      ,61.45,17.167,27.0,2004-07-06,2008-12-31
719,023810, 99999 ,NORRKOPING/KUNGSANG           ,SW   ,   ,ESSP  ,58.583,16.25,5.0,1973-07-28,1977-06-30
720,023820, 99999 ,LUNGO                         ,SW   ,   ,      ,62.65,18.1,18.0,1973-08-24,2021-06-01
721,023980, 99999 ,KRISTIANSTAD/EVEROD           ,SW   ,   ,ESMK  ,55.917,14.083,23.0,1973-07-08,1973-11-06
722,024000, 99999 ,OSTMARK                       ,SW   ,   ,      ,60.35,12.65,310.0,1977-07-01,2005-09-24
723,024020, 99999 ,SKILLINGMARK                  ,SW   ,   ,      ,59.867,11.967,130.0,1977-10-14,2004-02-24
724,024030, 99999 ,NAVEN                         ,SW   ,   ,      ,58.7,13.117,53.0,2001-07-01,2021-06-01
725,024040, 99999 ,ARVIKA                        ,SW   ,   ,ESKV  ,59.667,12.583,75.0,1977-07-01,2004-02-24
726,024060, 99999 ,BLOMSKOG                      ,SW   ,   ,      ,59.283,12.05,110.0,1977-07-01,2004-04-24
727,024070, 99999 ,MALUNG A                      ,SW   ,   ,      ,60.683,13.7,306.0,2001-11-24,2021-06-01
728,024080, 99999 ,BLOMSKOG                      ,SW   ,   ,      ,59.217,12.083,171.0,1996-08-01,2021-06-01
729,024090, 99999 ,AMAL                          ,SW   ,   ,      ,59.05,12.7,60.0,1977-07-01,2004-04-24
730,024100, 99999 ,MALUNG                        ,SW   ,   ,EVSM  ,60.683,13.7,308.0,1977-07-01,2011-08-18
731,024110, 99999 ,ARVIKA                        ,SW   ,   ,ESKV  ,59.676,12.639000000000001,72.2,2001-07-01,2021-06-01
732,024120, 99999 ,GUSTAVSFORS                   ,SW   ,   ,      ,60.15,13.8,190.0,1935-01-01,2005-07-26
733,024130, 99999 ,BRATTMON                      ,SW   ,   ,      ,60.75,12.767000000000001,205.0,2001-07-01,2016-04-21
734,024150, 99999 ,KARLSTAD SOL                  ,SW   ,   ,      ,59.367,13.467,46.0,1985-07-31,2008-12-31
735,024160, 99999 ,                              ,     ,   ,      ,,,,2001-07-18,2003-10-17
736,024161, 99999 ,MOLKOM                        ,SW   ,   ,      ,59.617,13.732999999999999,93.0,2002-09-24,2002-09-24
737,024170, 99999 ,PALGRUNDEN                    ,SW   ,   ,      ,58.75,13.15,50.0,1978-10-14,2021-06-01
738,024180, 99999 ,KARLSTAD                      ,SW   ,   ,ESOK  ,59.445,13.337,107.3,1935-01-01,2021-06-01
739,024190, 99999 ,KARLSTAD SOL                  ,SW   ,   ,      ,59.367,13.467,46.0,1984-05-20,2006-03-11
740,024200, 99999 ,MOCKFJARD                     ,SW   ,   ,      ,60.516999999999996,14.95,193.0,2001-11-17,2004-12-11
741,024220, 99999 ,ASPHYTTAN                     ,SW   ,   ,      ,59.617,14.183,130.0,2003-12-24,2005-01-24
742,024230, 99999 ,SUNNE                         ,SW   ,   ,      ,59.867,13.117,109.0,2001-07-01,2021-06-01
743,024240, 99999 ,STALLDALEN                    ,SW   ,   ,      ,59.95,14.95,210.0,1996-05-01,2003-03-19
744,024260, 99999 ,GUSTAVSFORS                   ,SW   ,   ,      ,60.15,13.8,188.0,2001-07-01,2021-06-01
745,024280, 99999 ,ATORP                         ,SW   ,   ,      ,59.1,14.367,105.0,1977-07-01,2004-08-01
746,024283, 99999 ,OREBRO                        ,SW   ,   ,ESOE  ,59.224,15.038,57.3,1991-08-27,2021-06-01
747,024284, 99999 ,MORA                          ,SW   ,   ,ESKM  ,60.958,14.511,193.2,1991-08-27,2021-06-01
748,024285, 99999 ,TORSBY                        ,SW   ,   ,ESST  ,60.158,12.991,119.8,2007-02-26,2021-06-01
749,024290, 99999 ,DAGLOSEN                      ,SW   ,   ,      ,59.667,14.183,133.0,2001-07-01,2021-06-01
750,024300, 99999 ,BACKA                         ,SW   ,   ,      ,60.917,15.117,227.0,2001-07-11,2002-07-21
751,024310, 99999 ,KLOTEN                        ,SW   ,   ,      ,59.867,15.25,289.0,2009-08-11,2021-06-01
752,024320, 99999 ,OREBRO                        ,SW   ,   ,      ,59.233000000000004,15.05,53.0,1996-08-01,2021-06-01
753,024330, 99999 ,FALUN                         ,SW   ,   ,      ,60.617,15.667,157.0,1935-01-01,2002-07-04
754,024350, 99999 ,BORLANGE                      ,SW   ,   ,ESSD  ,60.422,15.515,153.3,1979-08-02,2021-06-01
755,024360, 99999 ,OREBRO/EKEBY (DEAD)           ,SW   ,   ,      ,59.266999999999996,15.333,33.0,1935-01-01,1982-08-31
756,024373, 99999 ,ARBOGA                        ,SW   ,   ,ESQO  ,59.387,15.924000000000001,10.1,2007-02-26,2007-02-27
757,024390, 99999 ,FELLINGSBRO-FINNAKE           ,SW   ,   ,      ,59.533,15.583,52.0,2002-03-15,2002-11-01
758,024400, 99999 ,AMOT                          ,SW   ,   ,      ,60.967,16.433,162.0,2001-06-01,2021-06-01
759,024410, 99999 ,MORA                          ,SW   ,   ,      ,60.967,14.5,197.0,2001-07-01,2021-06-01
760,024430, 99999 ,ENKOPING                      ,SW   ,   ,      ,59.65,17.117,26.0,1979-08-03,2021-06-01
761,024440, 99999 ,FOLKARNA                      ,SW   ,   ,      ,60.167,16.317,70.0,1977-07-01,1996-05-06
762,024460, 99999 ,VASTERAS                      ,SW   ,   ,ESOW  ,59.589,16.634,6.4,1977-07-01,2021-06-01
763,024480, 99999 ,DUNKER                        ,SW   ,   ,      ,59.2,16.917,33.0,2001-06-20,2004-12-26
764,024490, 99999 ,ESKILSTUNA A                  ,SW   ,   ,      ,59.383,16.45,15.0,2001-07-01,2021-06-01
765,024500, 99999 ,EGGEGRUND                     ,SW   ,   ,      ,60.733000000000004,17.567,4.0,1997-09-01,2021-06-01
766,024510, 99999 ,VASTRA BANKEN (AUT)           ,SW   ,   ,      ,60.883,17.917,22.0,1977-12-11,2002-12-13
767,024520, 99999 ,KILSBERGEN-SUTTARBODA         ,SW   ,   ,      ,59.3,14.9,219.0,2001-07-01,2021-06-01
768,024530, 99999 ,GAVLE/SANDVIKEN AIR FORCE BAS ,SW   ,   ,ESSK  ,60.717,17.167,16.0,1996-05-01,2021-06-01
769,024540, 99999 ,UTVALNAS                      ,SW   ,   ,      ,60.75,17.35,4.0,1978-01-02,1978-06-15
770,024560, 99999 ,FILM                          ,SW   ,   ,      ,60.233000000000004,17.9,35.0,1996-02-01,2021-06-01
771,024580, 99999 ,UPPSALA                       ,SW   ,   ,ESCM  ,59.897,17.589000000000002,20.7,1935-01-01,2021-06-01
772,024600, 99999 ,ARLANDA                       ,SW   ,   ,ESSA  ,59.652,17.919,41.8,1977-06-30,2021-06-01
773,024620, 99999 ,UPPSALA UNIVERSITY            ,SW   ,   ,      ,59.867,17.633,13.0,2006-11-08,2019-11-20
774,024640, 99999 ,BROMMA                        ,SW   ,   ,ESSB  ,59.354,17.942,14.3,1931-01-01,2021-06-01
775,024650, 99999 ,STOCKHOLM/BROMMA UA           ,SW   ,   ,      ,59.35,17.967,22.0,1980-10-04,2002-12-18
776,024680, 99999 ,STORA SPANSBERGET             ,SW   ,   ,      ,60.383,15.133,493.0,2001-07-01,2021-06-01
777,024690, 99999 ,TULLINGE                      ,SW   ,   ,ESCN  ,59.183,17.917,54.0,2001-06-01,2021-06-01
778,024700, 99999 ,ORSKAR (LGT-H)                ,SW   ,   ,      ,60.533,18.383,5.0,2001-08-25,2003-06-01
779,024710, 99999 ,GRUNDKALLEN                   ,SW   ,   ,      ,60.5,18.867,23.0,1977-07-01,2003-10-12
780,024720, 99999 ,SKEPPMORA                     ,SW   ,   ,      ,60.117,15.117,240.0,2001-07-01,2016-04-21
781,024730, 99999 ,UNDERSTEN (LGT-H)             ,SW   ,   ,      ,60.283,18.917,40.0,1989-01-26,1989-03-01
782,024740, 99999 ,SINGO ISLAND                  ,SW   ,   ,      ,60.167,18.75,14.0,1977-07-01,2004-04-30
783,024760, 99999 ,FLODA                         ,SW   ,   ,      ,59.05,16.4,33.0,1996-08-01,2021-06-01
784,024780, 99999 ,                              ,     ,   ,      ,,,,1987-05-19,1987-05-19
785,024800, 99999 ,NORRTALJE/VASBY               ,SW   ,   ,      ,59.85,18.733,10.0,2001-08-04,2005-05-22
786,024810, 99999 ,SALA                          ,SW   ,   ,      ,59.917,16.683,58.0,2001-07-01,2021-06-01
787,024820, 99999 ,KERSTINBO                     ,SW   ,   ,      ,60.266999999999996,16.983,57.0,2001-07-01,2021-06-01
788,024830, 99999 ,STOCKHOLM-SOL                 ,SW   ,   ,      ,59.35,18.067,30.0,1997-09-01,2004-04-16
789,024840, 99999 ,STOCKHOLM/OBSERVATORIET       ,SW   ,   ,      ,59.35,18.067,44.0,2001-06-01,2021-06-01
790,024850, 99999 ,STOCKHOLM                     ,SW   ,   ,      ,59.35,18.067,52.0,1984-05-21,2019-10-30
791,024853, 99999 ,SKAVSTA                       ,SW   ,   ,ESKN  ,58.788999999999994,16.912,42.7,1991-08-27,2021-06-01
792,024860, 99999 ,ADELSO                        ,SW   ,   ,      ,59.367,17.517,6.0,2001-07-01,2021-06-01
793,024870, 99999 ,SKARPO A                      ,SW   ,   ,      ,59.35,18.733,22.0,1997-09-01,2021-06-01
794,024880, 99999 ,ORSKAR                        ,SW   ,   ,      ,60.533,18.383,9.0,1996-08-01,2021-06-01
795,024890, 99999 ,BERGA                         ,SW   ,   ,      ,59.067,18.117,3.0,2001-06-01,2021-06-01
796,024900, 99999 ,SVANBERGA                     ,SW   ,   ,      ,59.833,18.633,16.0,2001-07-01,2021-06-01
797,024930, 99999 ,SODERARM                      ,SW   ,   ,      ,59.75,19.417,15.0,2001-07-01,2021-06-01
798,024940, 99999 ,BJUROKLUBB (LGT-H)            ,SW   ,   ,      ,64.483,21.583000000000002,36.0,2001-09-30,2006-03-03
799,024950, 99999 ,SVENSKA BJORN (AUT)           ,SW   ,   ,      ,59.55,20.017,24.0,1978-03-03,2005-01-11
800,024960, 99999 ,SVENSKA HOGARNA               ,SW   ,   ,      ,59.45,19.5,12.0,1977-07-01,2021-06-01
801,024980, 99999 ,SVENSKA HOGARNA A             ,SW   ,   ,      ,59.45,19.5,12.0,2010-06-02,2021-06-01
802,024990, 99999 ,ALMAGRUNDET                   ,SW   ,   ,      ,59.15,19.133,25.0,1997-09-01,2010-03-11
803,025000, 99999 ,NORDKOSTER                    ,SW   ,   ,      ,58.9,11.0,35.0,1996-02-01,2021-06-01
804,025010, 99999 ,VADEROARNA                    ,SW   ,   ,      ,58.583,11.067,24.0,1977-08-04,2021-06-01
805,025020, 99999 ,DALS-ED                       ,SW   ,   ,      ,58.9,12.033,152.0,2002-02-05,2004-04-25
806,025040, 99999 ,SVARTEBORG                    ,SW   ,   ,      ,58.567,11.55,70.0,1977-07-01,2004-04-25
807,025050, 99999 ,MASESKAR                      ,SW   ,   ,      ,58.1,11.333,16.0,1996-08-01,2021-06-01
808,025060, 99999 ,                              ,     ,   ,      ,,,,2001-12-25,2003-11-25
809,025070, 99999 ,HUD                           ,SW   ,   ,      ,58.667,11.417,80.0,2001-07-01,2016-04-21
810,025080, 99999 ,MASESKAR (LGT-H)              ,SW   ,   ,      ,58.1,11.35,14.0,1973-01-01,2005-05-25
811,025100, 99999 ,LJUNGSKILE                    ,SW   ,   ,      ,58.217,11.933,70.0,1935-01-01,2005-09-25
812,025103, 99999 ,TROLLHATTAN VANERSBORG        ,SW   ,   ,ESGT  ,58.318000000000005,12.345,41.8,1991-08-27,2021-06-01
813,025105, 99999 ,LIDKOPING                     ,SW   ,   ,ESGL  ,58.466,13.174000000000001,61.0,2007-10-16,2012-08-30
814,025110, 99999 ,FLADEN                        ,SW   ,   ,      ,57.217,11.833,10.0,2004-11-02,2004-11-02
815,025120, 99999 ,SAVE                          ,SW   ,   ,ESGP  ,57.775,11.87,18.0,1935-01-01,2017-01-02
816,025130, 99999 ,GOTEBORG                      ,SW   ,   ,      ,57.717,12.0,2.0,1996-05-01,2021-06-01
817,025140, 99999 ,ARVIDSJAUR                    ,SW   ,   ,ESNX  ,65.59,19.282,379.5,1977-07-01,2021-06-01
818,025150, 99999 ,TORPABRON                     ,SW   ,   ,      ,58.2,12.15,20.0,2001-06-01,2016-04-21
819,025160, 99999 ,VINGA                         ,SW   ,   ,      ,57.633,11.617,19.0,1996-09-01,2021-06-01
820,025170, 99999 ,TRUBADUREN                    ,SW   ,   ,      ,57.6,11.633,26.0,1978-03-23,2007-06-11
821,025180, 99999 ,NIDINGEN                      ,SW   ,   ,      ,57.3,11.9,2.0,1973-01-01,2021-06-01
822,025190, 99999 ,RINGHALS (AUT)                ,SW   ,   ,      ,57.266999999999996,12.117,12.0,2002-03-25,2004-05-25
823,025200, 99999 ,SATENAS                       ,SW   ,   ,ESIB  ,58.426,12.714,55.2,1977-07-01,2021-06-01
824,025210, 99999 ,BERGARUD                      ,SW   ,   ,      ,58.6,12.417,55.0,1977-07-01,2016-04-21
825,025220, 99999 ,                              ,     ,   ,      ,,,,2001-06-25,2003-12-26
826,025230, 99999 ,ABRAUR                        ,SW   ,   ,      ,65.983,18.933,374.0,1973-01-01,2005-03-25
827,025240, 99999 ,MOLLA                         ,SW   ,   ,      ,57.933,13.067,190.0,1973-01-01,2006-03-31
828,025260, 99999 ,LANDVETTER                    ,SW   ,   ,ESGG  ,57.663000000000004,12.28,154.2,1977-10-03,2021-06-01
829,025270, 99999 ,GOTEBORG/LANDVETTER           ,SW   ,   ,      ,57.667,12.290999999999999,164.0,1999-12-19,1999-12-19
830,025280, 99999 ,TANDADALEN                    ,SW   ,   ,      ,61.167,13.017000000000001,830.0,1977-07-08,2003-09-14
831,025290, 99999 ,VARBERG           &           ,SW   ,   ,      ,57.117,12.267000000000001,0.0,1984-07-07,1984-10-24
832,025300, 99999 ,NASHUVUD                      ,SW   ,   ,      ,58.9,13.25,50.0,1977-07-01,1996-01-27
833,025330, 99999 ,SKARA                         ,SW   ,   ,      ,58.383,13.25,120.0,1935-01-01,2003-09-11
834,025350, 99999 ,SKOVDE                        ,SW   ,   ,ESGR  ,58.456,13.972999999999999,98.8,1991-08-27,2021-06-01
835,025360, 99999 ,RANGEDALA                     ,SW   ,   ,      ,57.783,13.167,299.0,1977-07-01,2021-06-01
836,025361, 99999 ,DALSJOFORS                    ,SW   ,   ,      ,57.717,13.083,259.0,2016-07-26,2020-03-26
837,025380, 99999 ,HESTRA                        ,SW   ,   ,      ,57.4,13.533,285.0,2003-12-21,2020-03-25
838,025390, 99999 ,ULLARED                       ,SW   ,   ,      ,57.117,12.783,122.0,2001-07-01,2021-06-01
839,025400, 99999 ,KROPPEFJALL-GRANAN            ,SW   ,   ,      ,58.6,12.2,174.0,2001-07-01,2021-06-01
840,025410, 99999 ,SNAVLUNDA                     ,SW   ,   ,      ,58.967,14.9,144.0,1977-07-01,2003-05-02
841,025420, 99999 ,HALLUM                        ,SW   ,   ,      ,58.317,13.033,71.0,2001-07-01,2021-06-01
842,025430, 99999 ,FAGRE                         ,SW   ,   ,      ,58.65,14.133,97.0,2003-06-21,2003-06-21
843,025440, 99999 ,KARLSBORG                     ,SW   ,   ,      ,58.516999999999996,14.517000000000001,94.0,1977-07-01,2021-06-01
844,025450, 99999 ,AXSTAL                        ,SW   ,   ,      ,58.567,14.567,93.0,2007-11-04,2021-06-01
845,025460, 99999 ,GARDSJO                       ,SW   ,   ,      ,58.883,14.383,212.0,2001-07-01,2021-06-01
846,025480, 99999 ,VISINGSO                      ,SW   ,   ,      ,58.1,14.417,95.0,2001-06-01,2021-06-01
847,025490, 99999 ,TOMTABACKEN                   ,SW   ,   ,      ,57.5,14.467,356.0,2001-07-01,2021-06-01
848,025500, 99999 ,JONKOPING                     ,SW   ,   ,ESGJ  ,57.758,14.069,225.9,1931-01-01,2021-06-01
849,025520, 99999 ,MALEXANDER                    ,SW   ,   ,      ,58.067,15.232999999999999,197.0,2001-07-01,2021-06-01
850,025530, 99999 ,KYMBO                         ,SW   ,   ,      ,58.083,13.783,220.0,2001-07-01,2016-04-21
851,025531, 99999 ,HABO                          ,SW   ,   ,      ,57.917,14.083,176.0,2007-02-26,2007-02-26
852,025540, 99999 ,KETTSTAKA                     ,SW   ,   ,      ,58.717,15.033,225.0,2001-07-01,2021-06-01
853,025550, 99999 ,NASSJO                        ,SW   ,   ,      ,57.65,14.7,305.0,1977-07-01,2003-01-02
854,025560, 99999 ,HAGSHULT                      ,SW   ,   ,ESMV  ,57.292,14.137,169.5,1977-07-01,2021-06-01
855,025570, 99999 ,HORN                          ,SW   ,   ,      ,57.883,15.867,91.0,2001-07-01,2021-06-01
856,025580, 99999 ,KOLMARDEN-STROMSFORS          ,SW   ,   ,      ,58.683,16.317,155.0,2001-07-01,2021-06-01
857,025590, 99999 ,GLADHAMMAR                    ,SW   ,   ,      ,57.7,16.467,31.0,2001-07-01,2021-06-01
858,025600, 99999 ,ZINKGRUVAN                    ,SW   ,   ,      ,58.8,15.117,215.0,2001-06-20,2006-11-20
859,025610, 99999 ,KVARN                         ,SW   ,   ,      ,58.65,15.433,10.0,2010-05-03,2021-06-01
860,025620, 99999 ,MALMEN                        ,SW   ,   ,ESCF  ,58.402,15.526,93.9,1977-07-01,2021-06-01
861,025625, 99999 ,SAAB                          ,SW   ,   ,ESSL  ,58.406000000000006,15.681,52.4,1995-10-12,2021-06-01
862,025630, 99999 ,HARSTENA                      ,SW   ,   ,      ,58.25,17.017,18.0,2001-07-01,2021-06-01
863,025635, 99999 ,ANGELHOLM                     ,SW   ,   ,ESDB  ,56.283,12.833,47.0,2004-08-10,2021-06-01
864,025640, 99999 ,MALEXANDER                    ,SW   ,   ,      ,58.067,15.232999999999999,200.0,1977-07-01,2005-06-21
865,025650, 99999 ,HULTSFRED                     ,SW   ,   ,ESSF  ,57.526,15.823,111.6,1979-08-06,2021-06-01
866,025660, 99999 ,MALILLA                       ,SW   ,   ,      ,57.4,15.817,98.0,1973-01-01,2015-01-28
867,025670, 99999 ,LANDSORT                      ,SW   ,   ,      ,58.75,17.867,20.0,1996-08-01,2021-06-01
868,025680, 99999 ,ALLGUNNEN                     ,SW   ,   ,      ,57.067,15.967,115.0,1977-07-07,2001-06-08
869,025700, 99999 ,NORRKOPING/BRAVALLA           ,SW   ,   ,      ,58.617,16.117,33.0,1977-07-01,2015-01-29
870,025710, 99999 ,KUNGSANGEN                    ,SW   ,   ,ESSP  ,58.586000000000006,16.250999999999998,9.8,1977-07-01,2021-06-01
871,025720, 99999 ,NYKOPING/SKAVST AFB           ,SW   ,   ,      ,58.783,16.917,42.0,1977-07-01,1980-10-03
872,025740, 99999 ,NORRKOPING                    ,SW   ,   ,      ,58.583,16.15,41.6,1997-09-01,2021-06-01
873,025750, 99999 ,OLANDS NORRA UDDE             ,SW   ,   ,      ,57.367,17.1,4.0,1996-08-01,2021-06-01
874,025760, 99999 ,GLADHAMMAR                    ,SW   ,   ,      ,57.717,16.467,35.0,1977-07-01,2002-11-02
875,025800, 99999 ,STABBO (AUT)                  ,SW   ,   ,      ,58.967,18.45,10.0,1987-03-14,2016-06-17
876,025810, 99999 ,UTO ISLAND                    ,SW   ,   ,      ,58.95,18.267,76.0,2002-02-22,2003-08-15
877,025820, 99999 ,LANDSORT (LGT-H)              ,SW   ,   ,      ,58.75,17.867,32.0,1935-01-01,2006-10-25
878,025830, 99999 ,GUSTAF DALEN                  ,SW   ,   ,      ,58.6,17.467,3.0,1977-07-08,2008-11-26
879,025840, 99999 ,GOTSKA SANDON                 ,SW   ,   ,      ,58.4,19.2,12.0,1935-01-01,2006-12-31
880,025860, 99999 ,HARSTENA                      ,SW   ,   ,      ,58.25,17.017,7.0,1977-07-01,2005-02-15
881,025870, 99999 ,FAROSUND-AR                   ,SW   ,   ,      ,57.917,18.95,13.0,2001-07-01,2021-06-01
882,025880, 99999 ,FARO ISLAND                   ,SW   ,   ,      ,57.9,19.167,8.0,1977-07-01,2002-05-13
883,025890, 99999 ,GOTSKA SANDON                 ,SW   ,   ,      ,58.4,19.2,17.0,2001-07-01,2021-06-01
884,025900, 99999 ,VISBY                         ,SW   ,   ,ESSV  ,57.663000000000004,18.346,50.0,1931-01-01,2021-06-01
885,025910, 99999 ,VISBY AEROLOGISKA STATION     ,SW   ,   ,      ,57.65,18.35,47.0,2002-03-15,2020-03-26
886,025920, 99999 ,OLANDS NORRA UDDE             ,SW   ,   ,      ,57.367,17.1,4.0,1935-01-01,2002-05-16
887,025931, 99999 ,VASTERGARN                    ,SW   ,   ,      ,57.433,18.15,2.0,2016-07-26,2018-11-25
888,025940, 99999 ,STORA KARLSO(LGT-H)           ,SW   ,   ,      ,57.3,17.967,40.0,2001-06-29,2004-07-12
889,025950, 99999 ,ROMA                          ,SW   ,   ,      ,57.55,18.433,35.0,2001-06-01,2016-04-21
890,025960, 99999 ,HERRVIK                       ,SW   ,   ,      ,57.417,18.917,5.0,2002-05-16,2005-03-25
891,025970, 99999 ,KAJAANI                       ,FI   ,   ,      ,64.283,27.683000000000003,135.9,2002-07-07,2003-08-20
892,025980, 99999 ,OSTERGARNSHOLM                ,SW   ,   ,      ,57.433,18.983,5.0,2001-07-01,2021-06-01
893,025990, 99999 ,NASUDDEN                      ,SW   ,   ,      ,57.067,18.217,5.0,1997-09-01,1997-09-02
894,026000, 99999 ,GLOMMEN                       ,SW   ,   ,      ,56.933,12.367,7.0,2001-06-26,2005-07-27
895,026020, 99999 ,HALLANDSASEN                  ,SW   ,   ,      ,56.4,12.95,140.0,2001-07-01,2016-04-21
896,026030, 99999 ,BROEN                         ,SW   ,   ,      ,56.867,12.667,47.0,2001-07-01,2020-03-26
897,026040, 99999 ,HALMSTAD                      ,SW   ,   ,ESMT  ,56.691,12.82,30.8,1977-07-01,2021-06-01
898,026050, 99999 ,HALLANDS VADERO               ,SW   ,   ,      ,56.45,12.55,10.0,1996-08-01,2021-06-01
899,026060, 99999 ,KULLEN (LGT-H)                ,SW   ,   ,      ,56.3,12.45,72.0,1977-07-01,2005-09-01
900,026070, 99999 ,ANGELHOLM/BARKAKRA            ,SW   ,   ,ESDB  ,56.283,12.083,18.0,1977-07-01,2008-12-31
901,026090, 99999 ,RYNGE                         ,SW   ,   ,      ,55.467,13.667,50.0,2001-07-01,2016-04-21
902,026100, 99999 ,ORJA (AUT)                    ,SW   ,   ,      ,55.867,12.867,11.0,1985-10-09,2005-11-08
903,026110, 99999 ,HELSINGBORG                   ,SW   ,   ,      ,56.033,12.767000000000001,44.0,1984-06-18,2021-06-01
904,026140, 99999 ,OSKARSGRUNDET                 ,SW   ,   ,      ,55.6,12.85,10.0,1984-05-15,2005-06-02
905,026150, 99999 ,FALSTERBO A                   ,SW   ,   ,      ,55.383,12.817,5.0,2009-07-13,2021-06-01
906,026151, 99999 ,KLAGSHAMN (PORT)              ,SW   ,   ,      ,55.516999999999996,12.917,2.0,2002-08-26,2002-08-26
907,026160, 99999 ,FALSTERBO                     ,SW   ,   ,      ,55.383,12.817,5.0,1977-07-01,2021-06-01
908,026170, 99999 ,MAGLARP (AUT)                 ,SW   ,   ,      ,55.383,13.067,8.0,2002-03-26,2004-06-26
909,026180, 99999 ,TORUP                         ,SW   ,   ,      ,56.95,13.067,130.0,2008-02-29,2021-06-01
910,026200, 99999 ,TORUP                         ,SW   ,   ,      ,56.967,13.067,87.0,1996-02-01,2008-02-18
911,026220, 99999 ,LJUNGBY                       ,SW   ,   ,      ,56.85,13.883,148.0,1977-07-01,2021-06-01
912,026230, 99999 ,HORBY                         ,SW   ,   ,      ,55.867,13.667,114.0,2001-08-27,2021-05-17
913,026240, 99999 ,MARKARYD                      ,SW   ,   ,      ,56.467,13.65,118.0,1977-07-01,1987-08-31
